{"11": {"lng": "116.39564503788", "lat": "39.92998577808", "name": "北京市"}, "12": {"lng": "117.21081309155", "lat": "39.14392990331", "name": "天津市"}, "13": {"lng": "115.66143362422", "lat": "38.613839749251", "name": "河北省"}, "14": {"lng": "112.51549586384", "lat": "37.866565990509", "name": "山西省"}, "15": {"lng": "114.41586754817", "lat": "43.468238221949", "name": "内蒙古自治区"}, "21": {"lng": "122.75359155772", "lat": "41.621600105958", "name": "辽宁省"}, "22": {"lng": "126.26287593078", "lat": "43.678846185241", "name": "吉林省"}, "23": {"lng": "128.04741371499", "lat": "47.356591643111", "name": "黑龙江省"}, "31": {"lng": "121.48789948569", "lat": "31.249161710015", "name": "上海市"}, "32": {"lng": "119.36848893836", "lat": "33.013797169954", "name": "江苏省"}, "33": {"lng": "119.95720242066", "lat": "29.159494120761", "name": "浙江省"}, "34": {"lng": "117.21600520757", "lat": "31.859252417079", "name": "安徽省"}, "35": {"lng": "117.98494311991", "lat": "26.050118295661", "name": "福建省"}, "36": {"lng": "115.6760823667", "lat": "27.757258443441", "name": "江西省"}, "37": {"lng": "118.52766339288", "lat": "36.099289929728", "name": "山东省"}, "41": {"lng": "113.48680405753", "lat": "34.157183767956", "name": "河南省"}, "42": {"lng": "112.41056219213", "lat": "31.20931625014", "name": "湖北省"}, "43": {"lng": "111.72066354648", "lat": "27.695864052356", "name": "湖南省"}, "44": {"lng": "113.39481755876", "lat": "23.408003729025", "name": "广东省"}, "45": {"lng": "108.92427442706", "lat": "23.552254688119", "name": "广西壮族自治区"}, "46": {"lng": "109.73375548794", "lat": "19.180500801261", "name": "海南省"}, "50": {"lng": "106.53063501341", "lat": "29.544606108886", "name": "重庆市"}, "51": {"lng": "102.8991597236", "lat": "30.367480937958", "name": "四川省"}, "52": {"lng": "106.7349961033", "lat": "26.902825927797", "name": "贵州省"}, "53": {"lng": "101.59295163701", "lat": "24.864212795483", "name": "云南省"}, "54": {"lng": "89.137981684031", "lat": "31.367315402715", "name": "西藏自治区"}, "61": {"lng": "109.50378929073", "lat": "35.860026261323", "name": "陕西省"}, "62": {"lng": "102.45762459934", "lat": "38.103267343752", "name": "甘肃省"}, "63": {"lng": "96.202543672261", "lat": "35.499761004275", "name": "青海省"}, "64": {"lng": "106.15548126505", "lat": "37.321323112295", "name": "宁夏回族自治区"}, "65": {"lng": "85.614899338339", "lat": "42.127000957642", "name": "新疆维吾尔自治区"}, "71": {"lng": "121.97387097872", "lat": "24.086956718805", "name": "台湾省"}, "81": {"lng": "114.18612410257", "lat": "22.29358599328", "name": "香港特别行政区"}, "82": {"lng": "113.55751910182", "lat": "22.204117988443", "name": "澳门特别行政区"}, "1101": {"lng": "116.39564503788", "lat": "39.92998577808", "name": "市辖区"}, "1201": {"lng": "117.21081309155", "lat": "39.14392990331", "name": "市辖区"}, "1301": {"lng": "114.52208184421", "lat": "38.048958314615", "name": "石家庄市"}, "1302": {"lng": "118.18345059773", "lat": "39.650530922537", "name": "唐山市"}, "1303": {"lng": "119.60436761612", "lat": "39.945461565898", "name": "秦皇岛市"}, "1304": {"lng": "114.48269393234", "lat": "36.609307928471", "name": "邯郸市"}, "1305": {"lng": "114.52048681294", "lat": "37.069531196912", "name": "邢台市"}, "1306": {"lng": "115.49481016908", "lat": "38.886564548027", "name": "保定市"}, "1307": {"lng": "114.89378153033", "lat": "40.811188491103", "name": "张家口市"}, "1308": {"lng": "117.93382245584", "lat": "40.992521052457", "name": "承德市"}, "1309": {"lng": "116.86380647644", "lat": "38.297615350326", "name": "沧州市"}, "1310": {"lng": "116.70360222264", "lat": "39.518610625085", "name": "廊坊市"}, "1311": {"lng": "115.68622865291", "lat": "37.746929045857", "name": "衡水市"}, "1390": {"lng": "115.66143362422", "lat": "38.613839749251", "name": "省直辖县级行政区划"}, "1401": {"lng": "112.55086358906", "lat": "37.890277053968", "name": "太原市"}, "1402": {"lng": "113.29050867308", "lat": "40.113744499705", "name": "大同市"}, "1403": {"lng": "113.56923760163", "lat": "37.869529493223", "name": "阳泉市"}, "1404": {"lng": "113.12029208573", "lat": "36.201664385743", "name": "长治市"}, "1405": {"lng": "112.86733275751", "lat": "35.499834467226", "name": "晋城市"}, "1406": {"lng": "112.47992772666", "lat": "39.337671966221", "name": "朔州市"}, "1407": {"lng": "112.73851439992", "lat": "37.693361526798", "name": "晋中市"}, "1408": {"lng": "111.00685365308", "lat": "35.038859479812", "name": "运城市"}, "1409": {"lng": "112.72793882881", "lat": "38.461030572959", "name": "忻州市"}, "1410": {"lng": "111.53878759641", "lat": "36.099745443585", "name": "临汾市"}, "1411": {"lng": "111.14315660235", "lat": "37.527316096963", "name": "吕梁市"}, "1501": {"lng": "111.66035052005", "lat": "40.828318873082", "name": "呼和浩特市"}, "1502": {"lng": "109.84623853249", "lat": "40.647119425709", "name": "包头市"}, "1503": {"lng": "106.83199909716", "lat": "39.683177006785", "name": "乌海市"}, "1504": {"lng": "118.93076119217", "lat": "42.297112320317", "name": "赤峰市"}, "1505": {"lng": "122.26036326322", "lat": "43.633756072996", "name": "通辽市"}, "1506": {"lng": "109.99370625145", "lat": "39.816489560602", "name": "鄂尔多斯市"}, "1507": {"lng": "119.760821794", "lat": "49.201636054604", "name": "呼伦贝尔市"}, "1508": {"lng": "107.42380671968", "lat": "40.769179902429", "name": "巴彦淖尔市"}, "1509": {"lng": "113.11284639068", "lat": "41.022362946751", "name": "乌兰察布市"}, "1522": {"lng": "122.04816651407", "lat": "46.083757065182", "name": "兴安盟"}, "1525": {"lng": "116.02733968896", "lat": "43.939704842324", "name": "锡林郭勒盟"}, "1529": {"lng": "105.69568287113", "lat": "38.843075264408", "name": "阿拉善盟"}, "2101": {"lng": "123.43279092161", "lat": "41.808644783516", "name": "沈阳市"}, "2102": {"lng": "121.59347778144", "lat": "38.948709938304", "name": "大连市"}, "2103": {"lng": "123.00776332888", "lat": "41.118743682153", "name": "鞍山市"}, "2104": {"lng": "123.92981976705", "lat": "41.877303829591", "name": "抚顺市"}, "2105": {"lng": "123.77806236979", "lat": "41.325837626649", "name": "本溪市"}, "2106": {"lng": "124.33854311477", "lat": "40.129022826638", "name": "丹东市"}, "2107": {"lng": "121.14774873824", "lat": "41.130878875917", "name": "锦州市"}, "2108": {"lng": "122.23339137079", "lat": "40.668651066474", "name": "营口市"}, "2109": {"lng": "121.66082212857", "lat": "42.01925010706", "name": "阜新市"}, "2110": {"lng": "123.17245120515", "lat": "41.273339265569", "name": "辽阳市"}, "2111": {"lng": "122.07322781023", "lat": "41.141248022956", "name": "盘锦市"}, "2112": {"lng": "123.85484961462", "lat": "42.299757012125", "name": "铁岭市"}, "2113": {"lng": "120.44616270274", "lat": "41.571827667857", "name": "朝阳市"}, "2114": {"lng": "120.86075764476", "lat": "40.743029881318", "name": "葫芦岛市"}, "2201": {"lng": "125.3136424272", "lat": "43.898337607098", "name": "长春市"}, "2202": {"lng": "126.56454398883", "lat": "43.871988334359", "name": "吉林市"}, "2203": {"lng": "124.39138207368", "lat": "43.175524701126", "name": "四平市"}, "2204": {"lng": "125.13368605218", "lat": "42.923302619054", "name": "辽源市"}, "2205": {"lng": "125.94265013851", "lat": "41.736397129868", "name": "通化市"}, "2206": {"lng": "126.43579767535", "lat": "41.945859397018", "name": "白山市"}, "2207": {"lng": "124.83299453234", "lat": "45.136048970084", "name": "松原市"}, "2208": {"lng": "122.8407766791", "lat": "45.621086275219", "name": "白城市"}, "2224": {"lng": "129.48590195816", "lat": "42.896413603744", "name": "延边朝鲜族自治州"}, "2301": {"lng": "126.65771685545", "lat": "45.773224633239", "name": "哈尔滨市"}, "2302": {"lng": "123.98728894217", "lat": "47.347699813366", "name": "齐齐哈尔市"}, "2303": {"lng": "130.94176727325", "lat": "45.321539886551", "name": "鸡西市"}, "2304": {"lng": "130.29247205063", "lat": "47.338665903727", "name": "鹤岗市"}, "2305": {"lng": "131.17140173958", "lat": "46.655102062482", "name": "双鸭山市"}, "2306": {"lng": "125.02183973021", "lat": "46.596709020008", "name": "大庆市"}, "2307": {"lng": "128.91076597792", "lat": "47.734685075079", "name": "伊春市"}, "2308": {"lng": "130.28473458595", "lat": "46.81377960474", "name": "佳木斯市"}, "2309": {"lng": "131.01904804712", "lat": "45.77500536864", "name": "七台河市"}, "2310": {"lng": "129.60803539564", "lat": "44.588521152783", "name": "牡丹江市"}, "2311": {"lng": "127.50083029524", "lat": "50.250690090738", "name": "黑河市"}, "2312": {"lng": "126.98909457163", "lat": "46.646063926997", "name": "绥化市"}, "2327": {"lng": "124.19610419017", "lat": "51.991788968014", "name": "大兴安岭地区"}, "3101": {"lng": "121.48789948569", "lat": "31.249161710015", "name": "市辖区"}, "3201": {"lng": "118.77807440803", "lat": "32.057235501806", "name": "南京市"}, "3202": {"lng": "120.30545590054", "lat": "31.570037451923", "name": "无锡市"}, "3203": {"lng": "117.18810662318", "lat": "34.271553431092", "name": "徐州市"}, "3204": {"lng": "119.98186101346", "lat": "31.771396744684", "name": "常州市"}, "3205": {"lng": "120.61990711549", "lat": "31.317987367952", "name": "苏州市"}, "3206": {"lng": "120.87380095093", "lat": "32.014664540823", "name": "南通市"}, "3207": {"lng": "119.17387221742", "lat": "34.60154896701", "name": "连云港市"}, "3208": {"lng": "119.03018636466", "lat": "33.606512739276", "name": "淮安市"}, "3209": {"lng": "120.14887181794", "lat": "33.379861877121", "name": "盐城市"}, "3210": {"lng": "119.42777755117", "lat": "32.408505254568", "name": "扬州市"}, "3211": {"lng": "119.45583540513", "lat": "32.204409443599", "name": "镇江市"}, "3212": {"lng": "119.91960601619", "lat": "32.47605327483", "name": "泰州市"}, "3213": {"lng": "118.29689337855", "lat": "33.952049733709", "name": "宿迁市"}, "3301": {"lng": "120.21937541572", "lat": "30.259244461536", "name": "杭州市"}, "3302": {"lng": "121.57900597259", "lat": "29.885258965918", "name": "宁波市"}, "3303": {"lng": "120.69063473371", "lat": "28.002837594041", "name": "温州市"}, "3304": {"lng": "120.76042769896", "lat": "30.773992239582", "name": "嘉兴市"}, "3305": {"lng": "120.13724316328", "lat": "30.877925155691", "name": "湖州市"}, "3306": {"lng": "120.59246738555", "lat": "30.002364580528", "name": "绍兴市"}, "3307": {"lng": "119.65257570368", "lat": "29.102899105391", "name": "金华市"}, "3308": {"lng": "118.87584165151", "lat": "28.956910447536", "name": "衢州市"}, "3309": {"lng": "122.16987209835", "lat": "30.036010302554", "name": "舟山市"}, "3310": {"lng": "121.44061293594", "lat": "28.668283285674", "name": "台州市"}, "3311": {"lng": "119.92957584319", "lat": "28.456299552144", "name": "丽水市"}, "3401": {"lng": "117.28269909168", "lat": "31.866942260687", "name": "合肥市"}, "3402": {"lng": "118.38410842323", "lat": "31.366019787543", "name": "芜湖市"}, "3403": {"lng": "117.35707986588", "lat": "32.929498906698", "name": "蚌埠市"}, "3404": {"lng": "117.01863886329", "lat": "32.642811823748", "name": "淮南市"}, "3405": {"lng": "118.51588184662", "lat": "31.68852815888", "name": "马鞍山市"}, "3406": {"lng": "116.79144742863", "lat": "33.960023305364", "name": "淮北市"}, "3407": {"lng": "117.81942872881", "lat": "30.940929694666", "name": "铜陵市"}, "3408": {"lng": "117.05873877211", "lat": "30.537897817381", "name": "安庆市"}, "3410": {"lng": "118.293569632", "lat": "29.734434856163", "name": "黄山市"}, "3411": {"lng": "118.32457035098", "lat": "32.317350595384", "name": "滁州市"}, "3412": {"lng": "115.82093225905", "lat": "32.90121133057", "name": "阜阳市"}, "3413": {"lng": "116.98869241183", "lat": "33.636772385781", "name": "宿州市"}, "3415": {"lng": "116.50525268298", "lat": "31.755558355198", "name": "六安市"}, "3416": {"lng": "115.78792824512", "lat": "33.871210565302", "name": "亳州市"}, "3417": {"lng": "117.49447677159", "lat": "30.660019248161", "name": "池州市"}, "3418": {"lng": "118.75209631098", "lat": "30.951642354296", "name": "宣城市"}, "3501": {"lng": "119.33022110713", "lat": "26.047125496573", "name": "福州市"}, "3502": {"lng": "118.10388604566", "lat": "24.489230612469", "name": "厦门市"}, "3503": {"lng": "119.07773096396", "lat": "25.448450136734", "name": "莆田市"}, "3504": {"lng": "117.64219393404", "lat": "26.270835279362", "name": "三明市"}, "3505": {"lng": "118.60036234323", "lat": "24.901652383991", "name": "泉州市"}, "3506": {"lng": "117.67620467895", "lat": "24.517064779808", "name": "漳州市"}, "3507": {"lng": "118.18188294866", "lat": "26.643626474198", "name": "南平市"}, "3508": {"lng": "117.01799673877", "lat": "25.078685433515", "name": "龙岩市"}, "3509": {"lng": "119.54208214972", "lat": "26.656527419159", "name": "宁德市"}, "3601": {"lng": "115.89352754584", "lat": "28.689578000141", "name": "南昌市"}, "3602": {"lng": "117.18652262527", "lat": "29.303562768448", "name": "景德镇市"}, "3603": {"lng": "113.85991703301", "lat": "27.639544222952", "name": "萍乡市"}, "3604": {"lng": "115.99984802155", "lat": "29.719639526122", "name": "九江市"}, "3605": {"lng": "114.94711741679", "lat": "27.822321558629", "name": "新余市"}, "3606": {"lng": "117.03545018601", "lat": "28.241309597182", "name": "鹰潭市"}, "3607": {"lng": "114.93590907928", "lat": "25.845295536347", "name": "赣州市"}, "3608": {"lng": "114.99203871092", "lat": "27.113847650157", "name": "吉安市"}, "3609": {"lng": "114.40003867156", "lat": "27.811129895843", "name": "宜春市"}, "3610": {"lng": "116.36091886693", "lat": "27.95454517027", "name": "抚州市"}, "3611": {"lng": "117.95546387715", "lat": "28.457622553937", "name": "上饶市"}, "3701": {"lng": "117.02496706629", "lat": "36.682784727161", "name": "济南市"}, "3702": {"lng": "120.38442818368", "lat": "36.105214901274", "name": "青岛市"}, "3703": {"lng": "118.05913427787", "lat": "36.804684854212", "name": "淄博市"}, "3704": {"lng": "117.2793053833", "lat": "34.807883078386", "name": "枣庄市"}, "3705": {"lng": "118.58392633307", "lat": "37.487121155276", "name": "东营市"}, "3706": {"lng": "121.30955503009", "lat": "37.53656156286", "name": "烟台市"}, "3707": {"lng": "119.14263382297", "lat": "36.716114873051", "name": "潍坊市"}, "3708": {"lng": "116.60079762482", "lat": "35.402121664331", "name": "济宁市"}, "3709": {"lng": "117.08941491714", "lat": "36.188077758948", "name": "泰安市"}, "3710": {"lng": "122.09395836581", "lat": "37.528787081251", "name": "威海市"}, "3711": {"lng": "119.50717994299", "lat": "35.420225193144", "name": "日照市"}, "3712": {"lng": "117.68466691247", "lat": "36.233654133647", "name": "莱芜市"}, "3713": {"lng": "118.34076823661", "lat": "35.072409074391", "name": "临沂市"}, "3714": {"lng": "116.32816136356", "lat": "37.460825926305", "name": "德州市"}, "3715": {"lng": "115.98686913929", "lat": "36.455828514728", "name": "聊城市"}, "3716": {"lng": "117.96829241453", "lat": "37.405313941826", "name": "滨州市"}, "3717": {"lng": "115.46335977453", "lat": "35.262440496075", "name": "菏泽市"}, "4101": {"lng": "113.64964384986", "lat": "34.75661006414", "name": "郑州市"}, "4102": {"lng": "114.35164211776", "lat": "34.801854175837", "name": "开封市"}, "4103": {"lng": "112.44752476895", "lat": "34.657367817651", "name": "洛阳市"}, "4104": {"lng": "113.30084897798", "lat": "33.745301456524", "name": "平顶山市"}, "4105": {"lng": "114.35180650767", "lat": "36.110266722181", "name": "安阳市"}, "4106": {"lng": "114.29776983802", "lat": "35.755425874224", "name": "鹤壁市"}, "4107": {"lng": "113.91269016082", "lat": "35.307257557661", "name": "新乡市"}, "4108": {"lng": "113.21183588499", "lat": "35.234607554986", "name": "焦作市"}, "4109": {"lng": "115.02662744067", "lat": "35.753297888208", "name": "濮阳市"}, "4110": {"lng": "113.83531245979", "lat": "34.026739588655", "name": "许昌市"}, "4111": {"lng": "114.04606140023", "lat": "33.576278688483", "name": "漯河市"}, "4112": {"lng": "111.18126209327", "lat": "34.78331994105", "name": "三门峡市"}, "4113": {"lng": "112.54284190051", "lat": "33.011419569116", "name": "南阳市"}, "4114": {"lng": "115.64188568785", "lat": "34.438588640246", "name": "商丘市"}, "4115": {"lng": "114.08549099347", "lat": "32.128582307512", "name": "信阳市"}, "4116": {"lng": "114.6541019423", "lat": "33.623740818141", "name": "周口市"}, "4117": {"lng": "114.04915354746", "lat": "32.983158154093", "name": "驻马店市"}, "4190": {"lng": "113.48680405753", "lat": "34.157183767956", "name": "省直辖县级行政区划"}, "4201": {"lng": "114.31620010268", "lat": "30.581084126921", "name": "武汉市"}, "4202": {"lng": "115.05068316392", "lat": "30.216127127714", "name": "黄石市"}, "4203": {"lng": "110.80122891676", "lat": "32.636994339468", "name": "十堰市"}, "4205": {"lng": "111.31098109196", "lat": "30.732757818026", "name": "宜昌市"}, "4206": {"lng": "111.94954852739", "lat": "31.939712558944", "name": "襄阳市"}, "4207": {"lng": "114.89559404136", "lat": "30.384439322752", "name": "鄂州市"}, "4208": {"lng": "112.21733029897", "lat": "31.042611202949", "name": "荆门市"}, "4209": {"lng": "113.93573439207", "lat": "30.927954784201", "name": "孝感市"}, "4210": {"lng": "112.24186580719", "lat": "30.332590522986", "name": "荆州市"}, "4211": {"lng": "114.90661804658", "lat": "30.446108937901", "name": "黄冈市"}, "4212": {"lng": "114.30006059206", "lat": "29.880656757728", "name": "咸宁市"}, "4213": {"lng": "113.37935836429", "lat": "31.717857608189", "name": "随州市"}, "4228": {"lng": "109.49192330375", "lat": "30.285888316556", "name": "恩施土家族苗族自治州"}, "4290": {"lng": "112.41056219213", "lat": "31.20931625014", "name": "省直辖县级行政区划"}, "4301": {"lng": "112.97935278765", "lat": "28.213478230853", "name": "长沙市"}, "4302": {"lng": "113.13169534107", "lat": "27.827432927663", "name": "株洲市"}, "4303": {"lng": "112.93555563303", "lat": "27.835095052979", "name": "湘潭市"}, "4304": {"lng": "112.58381881072", "lat": "26.898164415358", "name": "衡阳市"}, "4305": {"lng": "111.46152540355", "lat": "27.236811244922", "name": "邵阳市"}, "4306": {"lng": "113.14619551912", "lat": "29.378007075474", "name": "岳阳市"}, "4307": {"lng": "111.65371813684", "lat": "29.012148855181", "name": "常德市"}, "4308": {"lng": "110.48162015697", "lat": "29.12488935322", "name": "张家界市"}, "4309": {"lng": "112.36654664523", "lat": "28.588087779887", "name": "益阳市"}, "4310": {"lng": "113.0377044678", "lat": "25.782263975739", "name": "郴州市"}, "4311": {"lng": "111.61464768616", "lat": "26.435971646759", "name": "永州市"}, "4312": {"lng": "109.98695879585", "lat": "27.557482901173", "name": "怀化市"}, "4313": {"lng": "111.99639635657", "lat": "27.741073302349", "name": "娄底市"}, "4331": {"lng": "109.74574580039", "lat": "28.317950793674", "name": "湘西土家族苗族自治州"}, "4401": {"lng": "113.30764967515", "lat": "23.120049102076", "name": "广州市"}, "4402": {"lng": "113.59446110744", "lat": "24.802960311892", "name": "韶关市"}, "4403": {"lng": "114.02597365732", "lat": "22.546053546205", "name": "深圳市"}, "4404": {"lng": "113.56244702619", "lat": "22.256914646126", "name": "珠海市"}, "4405": {"lng": "116.72865028834", "lat": "23.383908453269", "name": "汕头市"}, "4406": {"lng": "113.13402563539", "lat": "23.035094840514", "name": "佛山市"}, "4407": {"lng": "113.07812534115", "lat": "22.575116783451", "name": "江门市"}, "4408": {"lng": "110.36506726285", "lat": "21.257463103764", "name": "湛江市"}, "4409": {"lng": "110.93124533068", "lat": "21.668225718822", "name": "茂名市"}, "4412": {"lng": "112.47965336992", "lat": "23.078663282929", "name": "肇庆市"}, "4413": {"lng": "114.41065807997", "lat": "23.113539852408", "name": "惠州市"}, "4414": {"lng": "116.12640309837", "lat": "24.304570606031", "name": "梅州市"}, "4415": {"lng": "115.3729242894", "lat": "22.778730500164", "name": "汕尾市"}, "4416": {"lng": "114.71372147587", "lat": "23.757250850469", "name": "河源市"}, "4417": {"lng": "111.97700975587", "lat": "21.871517304519", "name": "阳江市"}, "4418": {"lng": "113.04077334891", "lat": "23.698468550422", "name": "清远市"}, "4451": {"lng": "116.63007599086", "lat": "23.661811676517", "name": "潮州市"}, "4452": {"lng": "116.37950085538", "lat": "23.547999466926", "name": "揭阳市"}, "4453": {"lng": "112.05094595865", "lat": "22.937975685537", "name": "云浮市"}, "4501": {"lng": "108.29723355587", "lat": "22.806492935603", "name": "南宁市"}, "4502": {"lng": "109.42240181015", "lat": "24.329053352467", "name": "柳州市"}, "4503": {"lng": "110.26092014748", "lat": "25.262901245955", "name": "桂林市"}, "4504": {"lng": "111.30547195007", "lat": "23.485394636734", "name": "梧州市"}, "4505": {"lng": "109.12262791919", "lat": "21.47271823501", "name": "北海市"}, "4506": {"lng": "108.35179115286", "lat": "21.617398470472", "name": "防城港市"}, "4507": {"lng": "108.63879805642", "lat": "21.973350465313", "name": "钦州市"}, "4508": {"lng": "109.61370755658", "lat": "23.103373164409", "name": "贵港市"}, "4509": {"lng": "110.15167631614", "lat": "22.643973608377", "name": "玉林市"}, "4510": {"lng": "106.63182140365", "lat": "23.90151236791", "name": "百色市"}, "4511": {"lng": "111.55259417884", "lat": "24.411053547113", "name": "贺州市"}, "4512": {"lng": "108.06994770937", "lat": "24.699520782873", "name": "河池市"}, "4513": {"lng": "109.23181650474", "lat": "23.741165926515", "name": "来宾市"}, "4514": {"lng": "107.35732203837", "lat": "22.415455296546", "name": "崇左市"}, "4601": {"lng": "110.33080184834", "lat": "20.022071276952", "name": "海口市"}, "4602": {"lng": "109.52277128136", "lat": "18.257775914897", "name": "三亚市"}, "4603": {"lng": "113.75535610385", "lat": "12.464712920653", "name": "三沙市"}, "4690": {"lng": "109.73375548794", "lat": "19.180500801261", "name": "省直辖县级行政区划"}, "5001": {"lng": "106.53063501341", "lat": "29.544606108886", "name": "市辖区"}, "5002": {"lng": "106.53063501341", "lat": "29.544606108886", "name": "县"}, "5101": {"lng": "104.0679234633", "lat": "30.67994284542", "name": "成都市"}, "5103": {"lng": "104.77607133936", "lat": "29.359156889476", "name": "自贡市"}, "5104": {"lng": "101.72242315249", "lat": "26.587571257109", "name": "攀枝花市"}, "5105": {"lng": "105.44397028921", "lat": "28.89592980386", "name": "泸州市"}, "5106": {"lng": "104.40239781824", "lat": "31.131139652701", "name": "德阳市"}, "5107": {"lng": "104.70551897529", "lat": "31.504701258061", "name": "绵阳市"}, "5108": {"lng": "105.81968694", "lat": "32.441040158428", "name": "广元市"}, "5109": {"lng": "105.56488779226", "lat": "30.55749135038", "name": "遂宁市"}, "5110": {"lng": "105.07305599171", "lat": "29.599461534775", "name": "内江市"}, "5111": {"lng": "103.76082423877", "lat": "29.600957611095", "name": "乐山市"}, "5113": {"lng": "106.10555398379", "lat": "30.800965168237", "name": "南充市"}, "5114": {"lng": "103.84142956287", "lat": "30.061115079945", "name": "眉山市"}, "5115": {"lng": "104.63301906153", "lat": "28.769674796266", "name": "宜宾市"}, "5116": {"lng": "106.63572033137", "lat": "30.463983887888", "name": "广安市"}, "5117": {"lng": "107.49497344659", "lat": "31.214198858945", "name": "达州市"}, "5118": {"lng": "103.00935646635", "lat": "29.999716337066", "name": "雅安市"}, "5119": {"lng": "106.75791584175", "lat": "31.86918915916", "name": "巴中市"}, "5120": {"lng": "104.63593030167", "lat": "30.132191433952", "name": "资阳市"}, "5132": {"lng": "102.22856468921", "lat": "31.905762858339", "name": "阿坝藏族羌族自治州"}, "5133": {"lng": "101.96923206306", "lat": "30.055144114356", "name": "甘孜藏族自治州"}, "5134": {"lng": "102.2595908032", "lat": "27.892392903666", "name": "凉山彝族自治州"}, "5201": {"lng": "106.70917709618", "lat": "26.629906741441", "name": "贵阳市"}, "5202": {"lng": "104.85208676007", "lat": "26.591866060319", "name": "六盘水市"}, "5203": {"lng": "106.93126031648", "lat": "27.699961377076", "name": "遵义市"}, "5204": {"lng": "105.92826996576", "lat": "26.228594577737", "name": "安顺市"}, "5205": {"lng": "105.33332337117", "lat": "27.408562131331", "name": "毕节市"}, "5206": {"lng": "109.16855802826", "lat": "27.674902690624", "name": "铜仁市"}, "5223": {"lng": "104.90055779825", "lat": "25.095148055927", "name": "黔西南布依族苗族自治州"}, "5226": {"lng": "107.98535257274", "lat": "26.583991766542", "name": "黔东南苗族侗族自治州"}, "5227": {"lng": "107.52320511006", "lat": "26.264535997442", "name": "黔南布依族苗族自治州"}, "5301": {"lng": "102.71460113878", "lat": "25.049153100453", "name": "昆明市"}, "5303": {"lng": "103.78253888803", "lat": "25.520758142871", "name": "曲靖市"}, "5304": {"lng": "102.54506789248", "lat": "24.370447134438", "name": "玉溪市"}, "5305": {"lng": "99.177995613278", "lat": "25.12048919619", "name": "保山市"}, "5306": {"lng": "103.72502065573", "lat": "27.340632963635", "name": "昭通市"}, "5307": {"lng": "100.22962839888", "lat": "26.875351089481", "name": "丽江市"}, "5308": {"lng": "100.98005773013", "lat": "22.788777780149", "name": "普洱市"}, "5309": {"lng": "100.09261291373", "lat": "23.887806103773", "name": "临沧市"}, "5323": {"lng": "101.52938223914", "lat": "25.066355674186", "name": "楚雄彝族自治州"}, "5325": {"lng": "103.38406475716", "lat": "23.367717516499", "name": "红河哈尼族彝族自治州"}, "5326": {"lng": "104.24629431757", "lat": "23.37408685041", "name": "文山壮族苗族自治州"}, "5328": {"lng": "100.80303827521", "lat": "22.009433002236", "name": "西双版纳傣族自治州"}, "5329": {"lng": "100.22367478928", "lat": "25.596899639421", "name": "大理白族自治州"}, "5331": {"lng": "98.589434287407", "lat": "24.441239663008", "name": "德宏傣族景颇族自治州"}, "5333": {"lng": "98.859932042482", "lat": "25.860676978165", "name": "怒江傈僳族自治州"}, "5334": {"lng": "99.713681598883", "lat": "27.831029461167", "name": "迪庆藏族自治州"}, "5401": {"lng": "91.111890895984", "lat": "29.662557062057", "name": "拉萨市"}, "5402": {"lng": "88.956062773518", "lat": "29.268160032655", "name": "日喀则市"}, "5403": {"lng": "96.362440472918", "lat": "30.510924801158", "name": "昌都市"}, "5404": {"lng": "95.466234246683", "lat": "29.128080197802", "name": "林芝市"}, "5405": {"lng": "92.22087273151", "lat": "28.354982378107", "name": "山南市"}, "5424": {"lng": "92.067018368859", "lat": "31.48067983012", "name": "那曲地区"}, "5425": {"lng": "81.10766868949", "lat": "30.404556588325", "name": "阿里地区"}, "6101": {"lng": "108.9530982792", "lat": "34.277799897831", "name": "西安市"}, "6102": {"lng": "108.9680670134", "lat": "34.908367696384", "name": "铜川市"}, "6103": {"lng": "107.17064545238", "lat": "34.364080809748", "name": "宝鸡市"}, "6104": {"lng": "108.7075092782", "lat": "34.345372995999", "name": "咸阳市"}, "6105": {"lng": "109.48393269658", "lat": "34.502357975829", "name": "渭南市"}, "6106": {"lng": "109.50050975697", "lat": "36.60332035226", "name": "延安市"}, "6107": {"lng": "107.04547762873", "lat": "33.081568978158", "name": "汉中市"}, "6108": {"lng": "109.74592574433", "lat": "38.279439240071", "name": "榆林市"}, "6109": {"lng": "109.03804456348", "lat": "32.704370449994", "name": "安康市"}, "6110": {"lng": "109.9342081538", "lat": "33.873907395085", "name": "商洛市"}, "6201": {"lng": "103.82330544073", "lat": "36.064225525043", "name": "兰州市"}, "6203": {"lng": "102.20812626259", "lat": "38.516071799532", "name": "金昌市"}, "6204": {"lng": "104.17124090374", "lat": "36.546681706163", "name": "白银市"}, "6205": {"lng": "105.73693162286", "lat": "34.584319418869", "name": "天水市"}, "6206": {"lng": "102.64014734337", "lat": "37.933172142906", "name": "武威市"}, "6207": {"lng": "100.45989186892", "lat": "38.939320296982", "name": "张掖市"}, "6208": {"lng": "106.68891115655", "lat": "35.550110190017", "name": "平凉市"}, "6209": {"lng": "98.508414506167", "lat": "39.741473768159", "name": "酒泉市"}, "6210": {"lng": "107.64422708673", "lat": "35.72680075453", "name": "庆阳市"}, "6211": {"lng": "104.62663760066", "lat": "35.586056241828", "name": "定西市"}, "6212": {"lng": "104.93457340575", "lat": "33.394479972938", "name": "陇南市"}, "6229": {"lng": "103.21524917832", "lat": "35.598514348802", "name": "临夏回族自治州"}, "6230": {"lng": "102.9174424865", "lat": "34.992211178379", "name": "甘南藏族自治州"}, "6301": {"lng": "101.7679209898", "lat": "36.640738611958", "name": "西宁市"}, "6302": {"lng": "102.37668874252", "lat": "36.312743354178", "name": "海东市"}, "6322": {"lng": "100.87980217448", "lat": "36.960654101084", "name": "海北藏族自治州"}, "6323": {"lng": "102.00760030834", "lat": "35.522851551728", "name": "黄南藏族自治州"}, "6325": {"lng": "100.6240660941", "lat": "36.284363803805", "name": "海南藏族自治州"}, "6326": {"lng": "100.22372276899", "lat": "34.48048458461", "name": "果洛藏族自治州"}, "6327": {"lng": "97.013316137414", "lat": "33.006239909722", "name": "玉树藏族自治州"}, "6328": {"lng": "97.342625415333", "lat": "37.37379907059", "name": "海西蒙古族藏族自治州"}, "6401": {"lng": "106.20647860784", "lat": "38.502621011876", "name": "银川市"}, "6402": {"lng": "106.37933720153", "lat": "39.020223283603", "name": "石嘴山市"}, "6403": {"lng": "106.20825419851", "lat": "37.993561002936", "name": "吴忠市"}, "6404": {"lng": "106.28526799598", "lat": "36.021523480709", "name": "固原市"}, "6405": {"lng": "105.19675419936", "lat": "37.521124191595", "name": "中卫市"}, "6501": {"lng": "87.564987741116", "lat": "43.840380347218", "name": "乌鲁木齐市"}, "6502": {"lng": "84.881180186144", "lat": "45.594331066706", "name": "克拉玛依市"}, "6504": {"lng": "89.266025488642", "lat": "42.678924820794", "name": "吐鲁番市"}, "6505": {"lng": "93.529373012389", "lat": "42.344467104552", "name": "哈密市"}, "6523": {"lng": "87.296038125667", "lat": "44.007057898533", "name": "昌吉回族自治州"}, "6527": {"lng": "82.052436267224", "lat": "44.913651374298", "name": "博尔塔拉蒙古自治州"}, "6528": {"lng": "86.121688362984", "lat": "41.771362202569", "name": "巴音郭楞蒙古自治州"}, "6529": {"lng": "80.269846179329", "lat": "41.171730901452", "name": "阿克苏地区"}, "6530": {"lng": "76.137564477462", "lat": "39.750345577845", "name": "克孜勒苏柯尔克孜自治州"}, "6531": {"lng": "75.992973267492", "lat": "39.470627188746", "name": "喀什地区"}, "6532": {"lng": "79.930238637213", "lat": "37.116774492678", "name": "和田地区"}, "6540": {"lng": "81.297853530366", "lat": "43.922248096341", "name": "伊犁哈萨克自治州"}, "6542": {"lng": "82.974880583744", "lat": "46.75868362968", "name": "塔城地区"}, "6543": {"lng": "88.137915487132", "lat": "47.839744486198", "name": "阿勒泰地区"}, "6590": {"lng": "85.614899338339", "lat": "42.127000957642", "name": "自治区直辖县级行政区划"}, "110101": {"lng": "116.42188470126", "lat": "39.938574012986", "name": "东城区"}, "110102": {"lng": "116.37319010402", "lat": "39.934280143709", "name": "西城区"}, "110105": {"lng": "116.52169489108", "lat": "39.958953166407", "name": "朝阳区"}, "110106": {"lng": "116.25837033547", "lat": "39.841937852205", "name": "丰台区"}, "110107": {"lng": "116.18455581037", "lat": "39.938866544646", "name": "石景山区"}, "110108": {"lng": "116.23967780102", "lat": "40.033162045078", "name": "海淀区"}, "110109": {"lng": "115.79579538125", "lat": "40.000893031476", "name": "门头沟区"}, "110111": {"lng": "115.8628363129", "lat": "39.726752620796", "name": "房山区"}, "110112": {"lng": "116.74007918068", "lat": "39.809814883851", "name": "通州区"}, "110113": {"lng": "116.72822904528", "lat": "40.154951470441", "name": "顺义区"}, "110114": {"lng": "116.21645635689", "lat": "40.221723549832", "name": "昌平区"}, "110115": {"lng": "116.42519459738", "lat": "39.652790118364", "name": "大兴区"}, "110116": {"lng": "116.59340835643", "lat": "40.638139340311", "name": "怀柔区"}, "110117": {"lng": "117.15043344819", "lat": "40.215925453896", "name": "平谷区"}, "110118": {"lng": "117.09666568438", "lat": "40.517334853846", "name": "密云区"}, "110119": {"lng": "116.1618831398", "lat": "40.535475747111", "name": "延庆区"}, "120101": {"lng": "117.20281365403", "lat": "39.124808844703", "name": "和平区"}, "120102": {"lng": "117.26169316527", "lat": "39.126625684666", "name": "河东区"}, "120103": {"lng": "117.23616545062", "lat": "39.084493739615", "name": "河西区"}, "120104": {"lng": "117.16272794945", "lat": "39.116987285522", "name": "南开区"}, "120105": {"lng": "117.22029676508", "lat": "39.173148933924", "name": "河北区"}, "120106": {"lng": "117.16221680792", "lat": "39.170621331225", "name": "红桥区"}, "120110": {"lng": "117.41478234325", "lat": "39.139604642775", "name": "东丽区"}, "120111": {"lng": "117.12620134665", "lat": "39.035064611485", "name": "西青区"}, "120112": {"lng": "117.39290995972", "lat": "38.969790532725", "name": "津南区"}, "120113": {"lng": "117.18060609828", "lat": "39.259130625979", "name": "北辰区"}, "120114": {"lng": "117.03457791373", "lat": "39.457042575494", "name": "武清区"}, "120115": {"lng": "117.41142059078", "lat": "39.615544004133", "name": "宝坻区"}, "120116": {"lng": "117.64628627057", "lat": "39.059176638035", "name": "滨海新区"}, "120117": {"lng": "117.6312358292", "lat": "39.390421570053", "name": "宁河区"}, "120118": {"lng": "116.98682530718", "lat": "38.837510804607", "name": "静海区"}, "120119": {"lng": "117.47034191571", "lat": "40.009456311951", "name": "蓟州区"}, "130102": {"lng": "114.59262155387", "lat": "38.076874795787", "name": "长安区"}, "130104": {"lng": "114.43813995532", "lat": "38.033364550068", "name": "桥西区"}, "130105": {"lng": "114.45350142869", "lat": "38.117218640478", "name": "新华区"}, "130107": {"lng": "114.05074376291", "lat": "38.08109756116", "name": "井陉矿区"}, "130108": {"lng": "114.58638255261", "lat": "38.014621045712", "name": "裕华区"}, "130109": {"lng": "114.82809608578", "lat": "38.089490113945", "name": "藁城区"}, "130110": {"lng": "114.35731900345", "lat": "38.089969323509", "name": "鹿泉区"}, "130111": {"lng": "114.64775310253", "lat": "37.91328595181", "name": "栾城区"}, "130121": {"lng": "114.07795206335", "lat": "38.000890815811", "name": "井陉县"}, "130123": {"lng": "114.57020132348", "lat": "38.227072535479", "name": "正定县"}, "130125": {"lng": "114.45743612437", "lat": "38.546695301387", "name": "行唐县"}, "130126": {"lng": "114.18781898137", "lat": "38.510935985414", "name": "灵寿县"}, "130127": {"lng": "114.6073846934", "lat": "37.622650870757", "name": "高邑县"}, "130128": {"lng": "115.23310242793", "lat": "38.194680827355", "name": "深泽县"}, "130129": {"lng": "114.28955340433", "lat": "37.628132452966", "name": "赞皇县"}, "130130": {"lng": "114.95113960113", "lat": "38.1832860202", "name": "无极县"}, "130131": {"lng": "113.87242852701", "lat": "38.408762191725", "name": "平山县"}, "130132": {"lng": "114.42836015628", "lat": "37.807352641009", "name": "元氏县"}, "130133": {"lng": "114.83493823756", "lat": "37.769612448365", "name": "赵县"}, "130183": {"lng": "115.09173828064", "lat": "37.991145102246", "name": "晋州市"}, "130184": {"lng": "114.76227076683", "lat": "38.377578025839", "name": "新乐市"}, "130202": {"lng": "118.20604028639", "lat": "39.612986996735", "name": "路南区"}, "130203": {"lng": "118.18506997308", "lat": "39.657845680029", "name": "路北区"}, "130204": {"lng": "118.46223153818", "lat": "39.723044780378", "name": "古冶区"}, "130205": {"lng": "118.25784790075", "lat": "39.692123420846", "name": "开平区"}, "130207": {"lng": "118.08584709899", "lat": "39.384662748593", "name": "丰南区"}, "130208": {"lng": "118.05949036617", "lat": "39.789909410339", "name": "丰润区"}, "130209": {"lng": "118.41596118319", "lat": "39.266037841072", "name": "曹妃甸区"}, "130223": {"lng": "118.5837772519", "lat": "39.785508848229", "name": "滦县"}, "130224": {"lng": "118.54938466456", "lat": "39.360738899901", "name": "滦南县"}, "130225": {"lng": "118.93994305703", "lat": "39.357228891896", "name": "乐亭县"}, "130227": {"lng": "118.37138905434", "lat": "40.238507660812", "name": "迁西县"}, "130229": {"lng": "117.7347526449", "lat": "39.818843355788", "name": "玉田县"}, "130281": {"lng": "117.95763912762", "lat": "40.137901064021", "name": "遵化市"}, "130283": {"lng": "118.68695461732", "lat": "40.04044251326", "name": "迁安市"}, "130302": {"lng": "119.57761724583", "lat": "39.988779577117", "name": "海港区"}, "130303": {"lng": "119.7136155797", "lat": "40.032899628101", "name": "山海关区"}, "130304": {"lng": "119.47932079421", "lat": "39.854292584187", "name": "北戴河区"}, "130306": {"lng": "119.34003537992", "lat": "39.910857115367", "name": "抚宁区"}, "130321": {"lng": "119.13758245072", "lat": "40.353650308648", "name": "青龙满族自治县"}, "130322": {"lng": "119.09462149738", "lat": "39.638021164728", "name": "昌黎县"}, "130324": {"lng": "118.98556414609", "lat": "39.920978455186", "name": "卢龙县"}, "130402": {"lng": "114.46928986668", "lat": "36.536153078937", "name": "邯山区"}, "130403": {"lng": "114.51106763052", "lat": "36.637214815152", "name": "丛台区"}, "130404": {"lng": "114.44809470749", "lat": "36.610368592227", "name": "复兴区"}, "130406": {"lng": "114.19042164993", "lat": "36.474684997423", "name": "峰峰矿区"}, "130421": {"lng": "114.49448604232", "lat": "36.620347221062", "name": "邯郸县"}, "130423": {"lng": "114.58694416944", "lat": "36.266141946474", "name": "临漳县"}, "130424": {"lng": "114.70477468285", "lat": "36.428150647186", "name": "成安县"}, "130425": {"lng": "115.24863464404", "lat": "36.309543770756", "name": "大名县"}, "130426": {"lng": "113.74291352234", "lat": "36.598104535573", "name": "涉县"}, "130427": {"lng": "114.25510074085", "lat": "36.406730602547", "name": "磁县"}, "130428": {"lng": "114.83690510574", "lat": "36.577260887621", "name": "肥乡县"}, "130429": {"lng": "114.64160198718", "lat": "36.770200181653", "name": "永年县"}, "130430": {"lng": "115.20670231619", "lat": "36.797269787143", "name": "邱县"}, "130431": {"lng": "114.86956581384", "lat": "36.873677489817", "name": "鸡泽县"}, "130432": {"lng": "115.02087402114", "lat": "36.51192631393", "name": "广平县"}, "130433": {"lng": "115.29915662582", "lat": "36.618537005781", "name": "馆陶县"}, "130434": {"lng": "114.93600011898", "lat": "36.250567761095", "name": "魏县"}, "130435": {"lng": "115.03853247193", "lat": "36.752651265719", "name": "曲周县"}, "130481": {"lng": "114.05833396936", "lat": "36.748995476597", "name": "武安市"}, "130502": {"lng": "114.52129744384", "lat": "37.059046252073", "name": "桥东区"}, "130503": {"lng": "114.46840126286", "lat": "37.053579664221", "name": "桥西区"}, "130521": {"lng": "114.16774440241", "lat": "37.152421699275", "name": "邢台县"}, "130522": {"lng": "114.38466503755", "lat": "37.463137591617", "name": "临城县"}, "130523": {"lng": "114.30459575437", "lat": "37.314224311167", "name": "内丘县"}, "130524": {"lng": "114.70742434434", "lat": "37.517418414338", "name": "柏乡县"}, "130525": {"lng": "114.79291584707", "lat": "37.36468808358", "name": "隆尧县"}, "130526": {"lng": "114.7699671597", "lat": "37.174630101755", "name": "任县"}, "130527": {"lng": "114.75308935883", "lat": "37.016963874379", "name": "南和县"}, "130528": {"lng": "115.02167843721", "lat": "37.612086758173", "name": "宁晋县"}, "130529": {"lng": "115.05888578855", "lat": "37.278679297084", "name": "巨鹿县"}, "130530": {"lng": "115.25720361984", "lat": "37.499362567334", "name": "新河县"}, "130531": {"lng": "115.19817308929", "lat": "37.083548692406", "name": "广宗县"}, "130532": {"lng": "115.00481854709", "lat": "37.056110207564", "name": "平乡县"}, "130533": {"lng": "115.38772530687", "lat": "37.078394650565", "name": "威县"}, "130534": {"lng": "115.69158951605", "lat": "37.040529913617", "name": "清河县"}, "130535": {"lng": "115.52844117588", "lat": "36.858027353556", "name": "临西县"}, "130581": {"lng": "115.47940958601", "lat": "37.286427413275", "name": "南宫市"}, "130582": {"lng": "114.28309250179", "lat": "36.938635459346", "name": "沙河市"}, "130602": {"lng": "115.4337718341", "lat": "38.896799171923", "name": "竞秀区"}, "130606": {"lng": "115.52517138526", "lat": "38.878869183082", "name": "莲池区"}, "130607": {"lng": "115.22854614305", "lat": "38.936509575446", "name": "满城区"}, "130608": {"lng": "115.50474549359", "lat": "38.746793898598", "name": "清苑区"}, "130609": {"lng": "115.56341421452", "lat": "39.030072064834", "name": "徐水区"}, "130623": {"lng": "115.44462792481", "lat": "39.616117563205", "name": "涞水县"}, "130624": {"lng": "114.16421062387", "lat": "38.894806411217", "name": "阜平县"}, "130626": {"lng": "115.75504588838", "lat": "39.211518314259", "name": "定兴县"}, "130627": {"lng": "114.80609127315", "lat": "38.904521131249", "name": "唐县"}, "130628": {"lng": "115.83844188387", "lat": "38.673020900262", "name": "高阳县"}, "130629": {"lng": "115.90877891487", "lat": "39.057813549536", "name": "容城县"}, "130630": {"lng": "114.73045121001", "lat": "39.366936787031", "name": "涞源县"}, "130631": {"lng": "115.17834559654", "lat": "38.679014979104", "name": "望都县"}, "130632": {"lng": "115.88673101005", "lat": "38.8782552166", "name": "安新县"}, "130633": {"lng": "115.25402170203", "lat": "39.317566051144", "name": "易县"}, "130634": {"lng": "114.66066397519", "lat": "38.706612214921", "name": "曲阳县"}, "130635": {"lng": "115.66928195753", "lat": "38.528232136022", "name": "蠡县"}, "130636": {"lng": "115.07398905469", "lat": "38.927951375985", "name": "顺平县"}, "130637": {"lng": "115.48778569396", "lat": "38.459123140672", "name": "博野县"}, "130638": {"lng": "116.18329894846", "lat": "39.042786858077", "name": "雄县"}, "130681": {"lng": "115.99905364071", "lat": "39.482481810572", "name": "涿州市"}, "130683": {"lng": "115.33482671534", "lat": "38.393739990352", "name": "安国市"}, "130684": {"lng": "116.04093362477", "lat": "39.265087764832", "name": "高碑店市"}, "130702": {"lng": "114.91516641164", "lat": "40.782910350247", "name": "桥东区"}, "130703": {"lng": "114.8616234507", "lat": "40.83764647974", "name": "桥西区"}, "130705": {"lng": "115.25847218771", "lat": "40.632394360149", "name": "宣化区"}, "130706": {"lng": "115.35049833098", "lat": "40.568836928653", "name": "下花园区"}, "130708": {"lng": "114.60159442219", "lat": "40.854322579125", "name": "万全区"}, "130709": {"lng": "115.18918281511", "lat": "41.041738952718", "name": "崇礼区"}, "130722": {"lng": "114.77289736584", "lat": "41.293640752346", "name": "张北县"}, "130723": {"lng": "114.60653573475", "lat": "41.784595269099", "name": "康保县"}, "130724": {"lng": "115.63609164922", "lat": "41.580403842568", "name": "沽源县"}, "130725": {"lng": "114.15252831523", "lat": "41.132634994489", "name": "尚义县"}, "130726": {"lng": "114.71253718704", "lat": "39.879353147831", "name": "蔚县"}, "130727": {"lng": "114.39439590667", "lat": "40.138642120211", "name": "阳原县"}, "130728": {"lng": "114.50260736695", "lat": "40.559533575131", "name": "怀安县"}, "130730": {"lng": "115.63406061974", "lat": "40.34798364385", "name": "怀来县"}, "130731": {"lng": "115.22392517513", "lat": "40.101875913481", "name": "涿鹿县"}, "130732": {"lng": "115.89222267195", "lat": "40.956026259537", "name": "赤城县"}, "130802": {"lng": "117.94835524238", "lat": "40.971406352197", "name": "双桥区"}, "130803": {"lng": "117.80933581725", "lat": "41.051453160703", "name": "双滦区"}, "130804": {"lng": "117.67942626427", "lat": "40.531760281234", "name": "鹰手营子矿区"}, "130821": {"lng": "118.12571829805", "lat": "40.9732421823", "name": "承德县"}, "130822": {"lng": "117.72613599005", "lat": "40.458141686295", "name": "兴隆县"}, "130823": {"lng": "118.73932350858", "lat": "41.075303768703", "name": "平泉县"}, "130824": {"lng": "117.36956340989", "lat": "40.924820741761", "name": "滦平县"}, "130825": {"lng": "117.56992967905", "lat": "41.517994972231", "name": "隆化县"}, "130826": {"lng": "116.62379481268", "lat": "41.425684335184", "name": "丰宁满族自治县"}, "130827": {"lng": "118.63588822017", "lat": "40.578090378096", "name": "宽城满族自治县"}, "130828": {"lng": "117.54702150524", "lat": "42.108024565862", "name": "围场满族蒙古族自治县"}, "130902": {"lng": "116.89305880724", "lat": "38.308375333084", "name": "新华区"}, "130903": {"lng": "116.84485357764", "lat": "38.314446124596", "name": "运河区"}, "130921": {"lng": "116.86271383128", "lat": "38.302138696207", "name": "沧县"}, "130922": {"lng": "116.85123400252", "lat": "38.565778328556", "name": "青县"}, "130923": {"lng": "116.67783233648", "lat": "37.887451603688", "name": "东光县"}, "130924": {"lng": "117.56726425888", "lat": "38.142470216907", "name": "海兴县"}, "130925": {"lng": "117.26693989632", "lat": "37.960369724102", "name": "盐山县"}, "130926": {"lng": "115.88581610558", "lat": "38.422207122829", "name": "肃宁县"}, "130927": {"lng": "116.8658497774", "lat": "38.023185702825", "name": "南皮县"}, "130928": {"lng": "116.5080334073", "lat": "37.661863472094", "name": "吴桥县"}, "130929": {"lng": "116.17550530237", "lat": "38.242725840471", "name": "献县"}, "130930": {"lng": "117.15953838544", "lat": "38.091264713342", "name": "孟村回族自治县"}, "130981": {"lng": "116.38923597745", "lat": "38.090278710884", "name": "泊头市"}, "130982": {"lng": "116.16321405193", "lat": "38.74110464111", "name": "任丘市"}, "130983": {"lng": "117.40021701974", "lat": "38.401521845487", "name": "黄骅市"}, "130984": {"lng": "116.27159283893", "lat": "38.483721432479", "name": "河间市"}, "131002": {"lng": "116.79612310881", "lat": "39.345312180639", "name": "安次区"}, "131003": {"lng": "116.69423648939", "lat": "39.533685537455", "name": "广阳区"}, "131022": {"lng": "116.28967015726", "lat": "39.351105940994", "name": "固安县"}, "131023": {"lng": "116.5605569701", "lat": "39.302836430211", "name": "永清县"}, "131024": {"lng": "117.05130555355", "lat": "39.743100032865", "name": "香河县"}, "131025": {"lng": "116.58863867606", "lat": "38.668802703656", "name": "大城县"}, "131026": {"lng": "116.49481687118", "lat": "38.911390482572", "name": "文安县"}, "131028": {"lng": "116.95507644864", "lat": "39.89531635509", "name": "大厂回族自治县"}, "131081": {"lng": "116.57430598976", "lat": "39.109320079055", "name": "霸州市"}, "131082": {"lng": "117.02128418409", "lat": "39.96742764877", "name": "三河市"}, "131102": {"lng": "115.66665700012", "lat": "37.72421788608", "name": "桃城区"}, "131103": {"lng": "115.44750567041", "lat": "37.53643502058", "name": "冀州区"}, "131121": {"lng": "115.75767748261", "lat": "37.461024106054", "name": "枣强县"}, "131122": {"lng": "115.94450660708", "lat": "37.827678592246", "name": "武邑县"}, "131123": {"lng": "115.920118282", "lat": "38.050513034027", "name": "武强县"}, "131124": {"lng": "115.74000746168", "lat": "38.223059241042", "name": "饶阳县"}, "131125": {"lng": "115.49041582246", "lat": "38.243195869487", "name": "安平县"}, "131126": {"lng": "115.97805666289", "lat": "37.356997906367", "name": "故城县"}, "131127": {"lng": "116.20013356506", "lat": "37.668477471141", "name": "景县"}, "131128": {"lng": "116.32842518537", "lat": "37.912309213617", "name": "阜城县"}, "131182": {"lng": "115.58669880842", "lat": "37.957012862702", "name": "深州市"}, "139001": {"lng": "115.05740695232", "lat": "38.465839158048", "name": "定州市"}, "139002": {"lng": "115.29874950521", "lat": "37.924121876409", "name": "辛集市"}, "140105": {"lng": "112.57740860671", "lat": "37.753527970896", "name": "小店区"}, "140106": {"lng": "112.66320298122", "lat": "37.865737302061", "name": "迎泽区"}, "140107": {"lng": "112.62983632135", "lat": "37.915556056965", "name": "杏花岭区"}, "140108": {"lng": "112.48843997984", "lat": "37.972757839535", "name": "尖草坪区"}, "140109": {"lng": "112.40285697662", "lat": "37.894693447581", "name": "万柏林区"}, "140110": {"lng": "112.48158725626", "lat": "37.748674917003", "name": "晋源区"}, "140121": {"lng": "112.38708511797", "lat": "37.59324244737", "name": "清徐县"}, "140122": {"lng": "112.67265853687", "lat": "38.158246373698", "name": "阳曲县"}, "140123": {"lng": "111.797820928", "lat": "38.034584043133", "name": "娄烦县"}, "140181": {"lng": "112.1077390237", "lat": "37.90517928255", "name": "古交市"}, "140202": {"lng": "113.29696587275", "lat": "40.102542866559", "name": "城区"}, "140203": {"lng": "113.0470017583", "lat": "40.036495634995", "name": "矿区"}, "140211": {"lng": "113.22645661564", "lat": "40.051891387407", "name": "南郊区"}, "140212": {"lng": "113.23689411719", "lat": "40.267127127574", "name": "新荣区"}, "140221": {"lng": "113.82318140606", "lat": "40.222311526135", "name": "阳高县"}, "140222": {"lng": "114.16812988719", "lat": "40.403528534338", "name": "天镇县"}, "140223": {"lng": "114.16170176527", "lat": "39.76899447952", "name": "广灵县"}, "140224": {"lng": "114.21309517425", "lat": "39.377267777348", "name": "灵丘县"}, "140225": {"lng": "113.71075899599", "lat": "39.634162361299", "name": "浑源县"}, "140226": {"lng": "112.77785639076", "lat": "40.000737963069", "name": "左云县"}, "140227": {"lng": "113.58386582098", "lat": "40.001627488893", "name": "大同县"}, "140302": {"lng": "113.61283811719", "lat": "37.85786536147", "name": "城区"}, "140303": {"lng": "113.54077065934", "lat": "37.890804244519", "name": "矿区"}, "140311": {"lng": "113.56808615363", "lat": "37.911503911114", "name": "郊区"}, "140321": {"lng": "113.76897794042", "lat": "37.8492714173", "name": "平定县"}, "140322": {"lng": "113.36096660369", "lat": "38.229385734147", "name": "盂县"}, "140402": {"lng": "113.12316935827", "lat": "36.184511192113", "name": "城区"}, "140411": {"lng": "113.11069620661", "lat": "36.270339558413", "name": "郊区"}, "140421": {"lng": "113.08619419794", "lat": "36.024679976201", "name": "长治县"}, "140423": {"lng": "112.98897348398", "lat": "36.580200785754", "name": "襄垣县"}, "140424": {"lng": "112.75036278967", "lat": "36.342609751076", "name": "屯留县"}, "140425": {"lng": "113.53368897635", "lat": "36.221794153091", "name": "平顺县"}, "140426": {"lng": "113.39685159379", "lat": "36.619367610278", "name": "黎城县"}, "140427": {"lng": "113.37199790438", "lat": "35.99265193372", "name": "壶关县"}, "140428": {"lng": "112.80225403294", "lat": "36.110999402019", "name": "长子县"}, "140429": {"lng": "112.96751985958", "lat": "36.888322821209", "name": "武乡县"}, "140430": {"lng": "112.65221013617", "lat": "36.70738347605", "name": "沁县"}, "140431": {"lng": "112.29009399197", "lat": "36.701566639488", "name": "沁源县"}, "140481": {"lng": "113.25438708828", "lat": "36.374406273238", "name": "潞城市"}, "140502": {"lng": "112.84269710529", "lat": "35.513593270468", "name": "城区"}, "140521": {"lng": "112.37742990987", "lat": "35.751489118151", "name": "沁水县"}, "140522": {"lng": "112.36152699508", "lat": "35.426540841161", "name": "阳城县"}, "140524": {"lng": "113.34338659863", "lat": "35.690743897919", "name": "陵川县"}, "140525": {"lng": "112.87098535033", "lat": "35.475851325496", "name": "泽州县"}, "140581": {"lng": "112.93511535362", "lat": "35.809742457991", "name": "高平市"}, "140602": {"lng": "112.5562001526", "lat": "39.243272437238", "name": "朔城区"}, "140603": {"lng": "112.30434987236", "lat": "39.640007394398", "name": "平鲁区"}, "140621": {"lng": "112.78680490549", "lat": "39.521049673137", "name": "山阴县"}, "140622": {"lng": "113.26059286958", "lat": "39.509316043686", "name": "应县"}, "140623": {"lng": "112.42167745341", "lat": "40.008135706467", "name": "右玉县"}, "140624": {"lng": "113.11230462343", "lat": "39.793570836032", "name": "怀仁县"}, "140702": {"lng": "112.84373652716", "lat": "37.650824689054", "name": "榆次区"}, "140721": {"lng": "112.95418082333", "lat": "37.140049981591", "name": "榆社县"}, "140722": {"lng": "113.47453786444", "lat": "37.03279458538", "name": "左权县"}, "140723": {"lng": "113.47493445138", "lat": "37.348373699108", "name": "和顺县"}, "140724": {"lng": "113.76210572071", "lat": "37.563418385072", "name": "昔阳县"}, "140725": {"lng": "113.14161086395", "lat": "37.825118914407", "name": "寿阳县"}, "140726": {"lng": "112.73643253249", "lat": "37.407696414459", "name": "太谷县"}, "140727": {"lng": "112.46906595172", "lat": "37.292198086629", "name": "祁县"}, "140728": {"lng": "112.26549326017", "lat": "37.148089778462", "name": "平遥县"}, "140729": {"lng": "111.73550355035", "lat": "36.834487193362", "name": "灵石县"}, "140781": {"lng": "111.99518801957", "lat": "37.02547627594", "name": "介休市"}, "140802": {"lng": "110.96193094165", "lat": "35.063676878932", "name": "盐湖区"}, "140821": {"lng": "110.62589540589", "lat": "35.149379501121", "name": "临猗县"}, "140822": {"lng": "110.71553950499", "lat": "35.388134013652", "name": "万荣县"}, "140823": {"lng": "111.31928675078", "lat": "35.373753157", "name": "闻喜县"}, "140824": {"lng": "110.96512183757", "lat": "35.59826692411", "name": "稷山县"}, "140825": {"lng": "111.17287529232", "lat": "35.631582540507", "name": "新绛县"}, "140826": {"lng": "111.64482039841", "lat": "35.498578532808", "name": "绛县"}, "140827": {"lng": "111.82478688142", "lat": "35.221584155393", "name": "垣曲县"}, "140828": {"lng": "111.35838628885", "lat": "35.126679510784", "name": "夏县"}, "140829": {"lng": "111.25110932094", "lat": "34.888645774448", "name": "平陆县"}, "140830": {"lng": "110.61649553806", "lat": "34.709534760447", "name": "芮城县"}, "140881": {"lng": "110.48894872131", "lat": "34.894671510755", "name": "永济市"}, "140882": {"lng": "110.70853926353", "lat": "35.631891049091", "name": "河津市"}, "140902": {"lng": "112.60520013418", "lat": "38.437831964453", "name": "忻府区"}, "140921": {"lng": "113.03558876456", "lat": "38.516749763878", "name": "定襄县"}, "140922": {"lng": "113.44210404535", "lat": "38.778174001492", "name": "五台县"}, "140923": {"lng": "113.05058168825", "lat": "39.093197224067", "name": "代县"}, "140924": {"lng": "113.596213567", "lat": "39.204756994709", "name": "繁峙县"}, "140925": {"lng": "112.19389583349", "lat": "38.821889666345", "name": "宁武县"}, "140926": {"lng": "112.06499425223", "lat": "38.400067154102", "name": "静乐县"}, "140927": {"lng": "112.00991986754", "lat": "39.173053445654", "name": "神池县"}, "140928": {"lng": "111.74475714392", "lat": "39.008730857984", "name": "五寨县"}, "140929": {"lng": "111.54356839151", "lat": "38.73795692606", "name": "岢岚县"}, "140930": {"lng": "111.3598292601", "lat": "39.206439528631", "name": "河曲县"}, "140931": {"lng": "111.14283481361", "lat": "38.887135247044", "name": "保德县"}, "140932": {"lng": "111.67190327635", "lat": "39.464649232881", "name": "偏关县"}, "140981": {"lng": "112.68212831914", "lat": "38.838876172747", "name": "原平市"}, "141002": {"lng": "111.47466486211", "lat": "36.125936912419", "name": "尧都区"}, "141021": {"lng": "111.52704105623", "lat": "35.704200978944", "name": "曲沃县"}, "141022": {"lng": "111.83920947478", "lat": "35.695397582179", "name": "翼城县"}, "141023": {"lng": "111.38595309536", "lat": "35.874204029953", "name": "襄汾县"}, "141024": {"lng": "111.65937789135", "lat": "36.325514180326", "name": "洪洞县"}, "141025": {"lng": "112.01124254119", "lat": "36.303822531038", "name": "古县"}, "141026": {"lng": "112.30790366347", "lat": "36.164295531066", "name": "安泽县"}, "141027": {"lng": "111.92840887398", "lat": "35.945830766006", "name": "浮山县"}, "141028": {"lng": "110.7281619704", "lat": "36.158677317484", "name": "吉县"}, "141029": {"lng": "110.94412841404", "lat": "35.925119179378", "name": "乡宁县"}, "141030": {"lng": "110.71080544253", "lat": "36.432636300532", "name": "大宁县"}, "141031": {"lng": "111.00996531617", "lat": "36.711950508392", "name": "隰县"}, "141032": {"lng": "110.61789818355", "lat": "36.737137367462", "name": "永和县"}, "141033": {"lng": "111.16235867375", "lat": "36.424599698879", "name": "蒲县"}, "141034": {"lng": "111.48314834543", "lat": "36.642781389504", "name": "汾西县"}, "141081": {"lng": "111.37150924676", "lat": "35.62178548788", "name": "侯马市"}, "141082": {"lng": "111.8308356262", "lat": "36.599677829115", "name": "霍州市"}, "141102": {"lng": "111.31314199347", "lat": "37.552339254903", "name": "离石区"}, "141121": {"lng": "111.96499464978", "lat": "37.459705909704", "name": "文水县"}, "141122": {"lng": "111.81992715422", "lat": "37.68704558482", "name": "交城县"}, "141123": {"lng": "111.0693110824", "lat": "38.392262583946", "name": "兴县"}, "141124": {"lng": "110.90114744504", "lat": "37.962867394138", "name": "临县"}, "141125": {"lng": "110.87692675415", "lat": "37.403754146298", "name": "柳林县"}, "141126": {"lng": "110.75347868183", "lat": "37.035145108626", "name": "石楼县"}, "141127": {"lng": "111.60664055968", "lat": "38.343813372012", "name": "岚县"}, "141128": {"lng": "111.33797892211", "lat": "37.886687741974", "name": "方山县"}, "141129": {"lng": "111.18590350772", "lat": "37.266317510804", "name": "中阳县"}, "141130": {"lng": "111.31592365888", "lat": "36.957718536996", "name": "交口县"}, "141181": {"lng": "111.63764576631", "lat": "37.118132778217", "name": "孝义市"}, "141182": {"lng": "111.74599591288", "lat": "37.316764309106", "name": "汾阳市"}, "150102": {"lng": "111.79132678714", "lat": "40.929360778776", "name": "新城区"}, "150103": {"lng": "111.5968855951", "lat": "40.838894763788", "name": "回民区"}, "150104": {"lng": "111.65855345988", "lat": "40.747386672042", "name": "玉泉区"}, "150105": {"lng": "111.87633478501", "lat": "40.788864152356", "name": "赛罕区"}, "150121": {"lng": "111.23470409261", "lat": "40.689987016139", "name": "土默特左旗"}, "150122": {"lng": "111.31970020313", "lat": "40.361083978494", "name": "托克托县"}, "150123": {"lng": "111.90169267122", "lat": "40.333868442059", "name": "和林格尔县"}, "150124": {"lng": "111.70623630691", "lat": "39.889117744685", "name": "清水河县"}, "150125": {"lng": "111.17957193814", "lat": "41.1162043874", "name": "武川县"}, "150202": {"lng": "110.07014136051", "lat": "40.589124487996", "name": "东河区"}, "150203": {"lng": "109.80683355282", "lat": "40.658057498224", "name": "昆都仑区"}, "150204": {"lng": "109.90367483934", "lat": "40.658777959476", "name": "青山区"}, "150205": {"lng": "110.29921474522", "lat": "40.716464297272", "name": "石拐区"}, "150206": {"lng": "109.98916893149", "lat": "41.789992502326", "name": "白云鄂博矿区"}, "150207": {"lng": "109.9491974592", "lat": "40.627202278275", "name": "九原区"}, "150221": {"lng": "110.69325794788", "lat": "40.527995764374", "name": "土默特右旗"}, "150222": {"lng": "110.16759209358", "lat": "41.104725412274", "name": "固阳县"}, "150223": {"lng": "110.28618869999", "lat": "41.943507148267", "name": "达尔罕茂明安联合旗"}, "150302": {"lng": "106.86148184332", "lat": "39.734833651275", "name": "海勃湾区"}, "150303": {"lng": "106.92539717866", "lat": "39.296209479392", "name": "海南区"}, "150304": {"lng": "106.72585891133", "lat": "39.535877701433", "name": "乌达区"}, "150402": {"lng": "118.99810293421", "lat": "42.286232134079", "name": "红山区"}, "150403": {"lng": "119.2681694129", "lat": "42.184130648802", "name": "元宝山区"}, "150404": {"lng": "118.75710571166", "lat": "42.268753015289", "name": "松山区"}, "150421": {"lng": "120.05324069384", "lat": "44.195956597411", "name": "阿鲁科尔沁旗"}, "150422": {"lng": "119.28076636509", "lat": "44.203430813088", "name": "巴林左旗"}, "150423": {"lng": "118.9460897431", "lat": "43.684786631454", "name": "巴林右旗"}, "150424": {"lng": "118.1102161479", "lat": "43.771462211479", "name": "林西县"}, "150425": {"lng": "117.35857031121", "lat": "43.218237176681", "name": "克什克腾旗"}, "150426": {"lng": "119.25464294075", "lat": "42.973979919258", "name": "翁牛特旗"}, "150428": {"lng": "118.66705601357", "lat": "41.908351449935", "name": "喀喇沁旗"}, "150429": {"lng": "118.90549936909", "lat": "41.571040867139", "name": "宁城县"}, "150430": {"lng": "120.15771329609", "lat": "42.430592238203", "name": "敖汉旗"}, "150502": {"lng": "122.29129415356", "lat": "43.658290149837", "name": "科尔沁区"}, "150521": {"lng": "122.49918004442", "lat": "44.0575792852", "name": "科尔沁左翼中旗"}, "150522": {"lng": "122.69734535162", "lat": "43.196082751665", "name": "科尔沁左翼后旗"}, "150523": {"lng": "121.32409399005", "lat": "43.734941954391", "name": "开鲁县"}, "150524": {"lng": "121.5730378859", "lat": "42.810038215314", "name": "库伦旗"}, "150525": {"lng": "120.94078899637", "lat": "42.972383010739", "name": "奈曼旗"}, "150526": {"lng": "120.59602806799", "lat": "44.82245130193", "name": "扎鲁特旗"}, "150581": {"lng": "119.57974844022", "lat": "45.52810605633", "name": "霍林郭勒市"}, "150602": {"lng": "109.76441928582", "lat": "39.805585913146", "name": "东胜区"}, "150603": {"lng": "109.84087569351", "lat": "39.640791926893", "name": "康巴什区"}, "150621": {"lng": "109.86619090676", "lat": "40.220264473893", "name": "达拉特旗"}, "150622": {"lng": "110.88623942079", "lat": "39.79472489563", "name": "准格尔旗"}, "150623": {"lng": "107.59700999652", "lat": "38.275938287288", "name": "鄂托克前旗"}, "150624": {"lng": "107.75202023325", "lat": "39.286296593278", "name": "鄂托克旗"}, "150625": {"lng": "108.21282820432", "lat": "40.212873152738", "name": "杭锦旗"}, "150626": {"lng": "108.88966323666", "lat": "38.640475147234", "name": "乌审旗"}, "150627": {"lng": "109.70418618841", "lat": "39.420695918404", "name": "伊金霍洛旗"}, "150702": {"lng": "120.04288208342", "lat": "49.279245456202", "name": "海拉尔区"}, "150703": {"lng": "117.72318498536", "lat": "49.461481568108", "name": "扎赉诺尔区"}, "150721": {"lng": "123.17195423134", "lat": "48.639988741071", "name": "阿荣旗"}, "150722": {"lng": "124.47443404901", "lat": "49.104886651718", "name": "莫力达瓦达斡尔族自治旗"}, "150723": {"lng": "123.81727783782", "lat": "50.348754571528", "name": "鄂伦春自治旗"}, "150724": {"lng": "120.06748322167", "lat": "48.499136514599", "name": "鄂温克族自治旗"}, "150725": {"lng": "119.53520765754", "lat": "49.605281276761", "name": "陈巴尔虎旗"}, "150726": {"lng": "118.62152477909", "lat": "48.43639187877", "name": "新巴尔虎左旗"}, "150727": {"lng": "116.8021843422", "lat": "48.644978915379", "name": "新巴尔虎右旗"}, "150781": {"lng": "117.60368677619", "lat": "49.500031717154", "name": "满洲里市"}, "150782": {"lng": "121.51266780552", "lat": "49.329995939597", "name": "牙克石市"}, "150783": {"lng": "121.92920216562", "lat": "47.7434033831", "name": "扎兰屯市"}, "150784": {"lng": "120.65276364824", "lat": "51.660818880977", "name": "额尔古纳市"}, "150785": {"lng": "121.79771324217", "lat": "51.37592516127", "name": "根河市"}, "150802": {"lng": "107.44183964667", "lat": "40.932018223224", "name": "临河区"}, "150821": {"lng": "108.07228406065", "lat": "41.045426664817", "name": "五原县"}, "150822": {"lng": "106.7000000567", "lat": "40.55518106886", "name": "磴口县"}, "150823": {"lng": "109.10529705882", "lat": "40.905993260887", "name": "乌拉特前旗"}, "150824": {"lng": "108.46454180074", "lat": "41.831044527428", "name": "乌拉特中旗"}, "150825": {"lng": "106.41380804671", "lat": "41.53194458396", "name": "乌拉特后旗"}, "150826": {"lng": "107.03345374933", "lat": "40.890870780779", "name": "杭锦后旗"}, "150902": {"lng": "113.11283222874", "lat": "41.027765971469", "name": "集宁区"}, "150921": {"lng": "112.44337671416", "lat": "40.958869485808", "name": "卓资县"}, "150922": {"lng": "114.16573790656", "lat": "41.979126377538", "name": "化德县"}, "150923": {"lng": "113.62215528367", "lat": "41.726516851564", "name": "商都县"}, "150924": {"lng": "113.77372051762", "lat": "40.952666521778", "name": "兴和县"}, "150925": {"lng": "112.55043247172", "lat": "40.502780210604", "name": "凉城县"}, "150926": {"lng": "113.24109639163", "lat": "40.981709597107", "name": "察哈尔右翼前旗"}, "150927": {"lng": "112.47074335399", "lat": "41.428255371505", "name": "察哈尔右翼中旗"}, "150928": {"lng": "113.06969288248", "lat": "41.529483090789", "name": "察哈尔右翼后旗"}, "150929": {"lng": "111.58903652853", "lat": "42.30714575607", "name": "四子王旗"}, "150981": {"lng": "113.30867650253", "lat": "40.558336025296", "name": "丰镇市"}, "152201": {"lng": "122.0815338095", "lat": "46.116943570165", "name": "乌兰浩特市"}, "152202": {"lng": "120.35753387505", "lat": "47.163696335727", "name": "阿尔山市"}, "152221": {"lng": "121.22152365342", "lat": "46.334025380898", "name": "科尔沁右翼前旗"}, "152222": {"lng": "121.19851019319", "lat": "45.242068815668", "name": "科尔沁右翼中旗"}, "152223": {"lng": "122.38814625782", "lat": "46.790807786397", "name": "扎赉特旗"}, "152224": {"lng": "121.51921179351", "lat": "45.632866219095", "name": "突泉县"}, "152501": {"lng": "111.96617841378", "lat": "43.417780458226", "name": "二连浩特市"}, "152502": {"lng": "116.13694826431", "lat": "44.078961129099", "name": "锡林浩特市"}, "152522": {"lng": "114.89347121165", "lat": "44.276507422523", "name": "阿巴嘎旗"}, "152523": {"lng": "113.14030742275", "lat": "44.039238043252", "name": "苏尼特左旗"}, "152524": {"lng": "112.91159981029", "lat": "42.900963777858", "name": "苏尼特右旗"}, "152525": {"lng": "117.8104504134", "lat": "45.826664793338", "name": "东乌珠穆沁旗"}, "152526": {"lng": "117.81696314273", "lat": "44.715902995292", "name": "西乌珠穆沁旗"}, "152527": {"lng": "115.30455821777", "lat": "41.906215635041", "name": "太仆寺旗"}, "152528": {"lng": "114.12058911409", "lat": "42.368275700926", "name": "镶黄旗"}, "152529": {"lng": "115.02434728451", "lat": "42.554842970033", "name": "正镶白旗"}, "152530": {"lng": "115.94010983058", "lat": "42.674413879311", "name": "正蓝旗"}, "152531": {"lng": "116.4986386762", "lat": "42.196600874379", "name": "多伦县"}, "152921": {"lng": "105.03824684198", "lat": "39.547806401013", "name": "阿拉善左旗"}, "152922": {"lng": "102.44385599727", "lat": "40.186228955604", "name": "阿拉善右旗"}, "152923": {"lng": "100.09951238471", "lat": "41.693799843161", "name": "额济纳旗"}, "210102": {"lng": "123.41433166046", "lat": "41.786474395792", "name": "和平区"}, "210103": {"lng": "123.45355228301", "lat": "41.798304641933", "name": "沈河区"}, "210104": {"lng": "123.49892677691", "lat": "41.835279080775", "name": "大东区"}, "210105": {"lng": "123.41537632672", "lat": "41.848913204573", "name": "皇姑区"}, "210106": {"lng": "123.35862982907", "lat": "41.805724167622", "name": "铁西区"}, "210111": {"lng": "123.42628905169", "lat": "41.589345157565", "name": "苏家屯区"}, "210112": {"lng": "123.5714290915", "lat": "41.794157738255", "name": "浑南区"}, "210113": {"lng": "123.5186904027", "lat": "42.043849976101", "name": "沈北新区"}, "210114": {"lng": "123.2428469731", "lat": "41.843551023712", "name": "于洪区"}, "210115": {"lng": "122.79857550059", "lat": "41.500330370098", "name": "辽中区"}, "210123": {"lng": "123.27359808776", "lat": "42.765540738313", "name": "康平县"}, "210124": {"lng": "123.24889709003", "lat": "42.415297839562", "name": "法库县"}, "210181": {"lng": "122.86641820399", "lat": "42.016776193846", "name": "新民市"}, "210202": {"lng": "121.67796628923", "lat": "38.900436431992", "name": "中山区"}, "210203": {"lng": "121.6258229781", "lat": "38.913369529939", "name": "西岗区"}, "210204": {"lng": "121.5826178068", "lat": "38.921778341674", "name": "沙河口区"}, "210211": {"lng": "121.52850037949", "lat": "38.955461760661", "name": "甘井子区"}, "210212": {"lng": "121.29593564059", "lat": "38.908290673003", "name": "旅顺口区"}, "210213": {"lng": "121.95658248044", "lat": "39.29861907186", "name": "金州区"}, "210214": {"lng": "122.21603953088", "lat": "39.651792833684", "name": "普兰店区"}, "210224": {"lng": "122.74826454271", "lat": "39.26010853029", "name": "长海县"}, "210281": {"lng": "121.79069878874", "lat": "39.70895639619", "name": "瓦房店市"}, "210283": {"lng": "122.934145267", "lat": "39.858909784172", "name": "庄河市"}, "210302": {"lng": "123.02070584518", "lat": "41.118235115557", "name": "铁东区"}, "210303": {"lng": "122.98578619475", "lat": "41.127872476833", "name": "铁西区"}, "210304": {"lng": "123.04047350708", "lat": "41.164172891853", "name": "立山区"}, "210311": {"lng": "123.01400529455", "lat": "41.061328521987", "name": "千山区"}, "210321": {"lng": "122.4436825276", "lat": "41.347099748004", "name": "台安县"}, "210323": {"lng": "123.34606899826", "lat": "40.4031809953", "name": "岫岩满族自治县"}, "210381": {"lng": "122.79120058219", "lat": "40.840354247523", "name": "海城市"}, "210402": {"lng": "123.91136857188", "lat": "41.869789660664", "name": "新抚区"}, "210403": {"lng": "124.02924934124", "lat": "41.833588275171", "name": "东洲区"}, "210404": {"lng": "123.78599647355", "lat": "41.860403588778", "name": "望花区"}, "210411": {"lng": "123.90172355545", "lat": "41.916014133796", "name": "顺城区"}, "210421": {"lng": "124.1365888338", "lat": "41.750076669591", "name": "抚顺县"}, "210422": {"lng": "124.82786556411", "lat": "41.635119411", "name": "新宾满族自治县"}, "210423": {"lng": "124.92431743309", "lat": "42.118882344791", "name": "清原满族自治县"}, "210502": {"lng": "123.69257521577", "lat": "41.240400691895", "name": "平山区"}, "210503": {"lng": "123.71186569778", "lat": "41.45615399333", "name": "溪湖区"}, "210504": {"lng": "123.90173685037", "lat": "41.347752110456", "name": "明山区"}, "210505": {"lng": "123.82788014761", "lat": "41.122716220999", "name": "南芬区"}, "210521": {"lng": "124.15856431847", "lat": "41.195670233912", "name": "本溪满族自治县"}, "210522": {"lng": "125.29002787", "lat": "41.261815877129", "name": "桓仁满族自治县"}, "210602": {"lng": "124.35032097797", "lat": "40.173197015058", "name": "元宝区"}, "210603": {"lng": "124.35556286011", "lat": "40.067035318752", "name": "振兴区"}, "210604": {"lng": "124.29219665893", "lat": "40.211546606919", "name": "振安区"}, "210624": {"lng": "124.93410611424", "lat": "40.766142006754", "name": "宽甸满族自治县"}, "210681": {"lng": "123.876870274", "lat": "39.981217334184", "name": "东港市"}, "210682": {"lng": "124.07296025051", "lat": "40.579570306659", "name": "凤城市"}, "210702": {"lng": "121.1264337451", "lat": "41.14138819307", "name": "古塔区"}, "210703": {"lng": "121.18266452595", "lat": "41.13438040426", "name": "凌河区"}, "210711": {"lng": "121.11864471768", "lat": "41.136830132753", "name": "太和区"}, "210726": {"lng": "122.26073588726", "lat": "41.799697885598", "name": "黑山县"}, "210727": {"lng": "121.30187737888", "lat": "41.534928118312", "name": "义县"}, "210781": {"lng": "121.28557458803", "lat": "41.152566155094", "name": "凌海市"}, "210782": {"lng": "121.86454971392", "lat": "41.547118023827", "name": "北镇市"}, "210802": {"lng": "122.2655920301", "lat": "40.703009826765", "name": "站前区"}, "210803": {"lng": "122.21012624622", "lat": "40.66694904618", "name": "西市区"}, "210804": {"lng": "122.17689658108", "lat": "40.25258448446", "name": "鲅鱼圈区"}, "210811": {"lng": "122.33090270339", "lat": "40.672565437571", "name": "老边区"}, "210881": {"lng": "122.47732679351", "lat": "40.235441470469", "name": "盖州市"}, "210882": {"lng": "122.57155106236", "lat": "40.646915451877", "name": "大石桥市"}, "210902": {"lng": "121.65270512981", "lat": "41.99090249247", "name": "海州区"}, "210903": {"lng": "121.82432100766", "lat": "42.074627619468", "name": "新邱区"}, "210904": {"lng": "121.73775310227", "lat": "42.00945236252", "name": "太平区"}, "210905": {"lng": "121.44683854847", "lat": "41.754998439335", "name": "清河门区"}, "210911": {"lng": "121.6275568874", "lat": "42.043253678758", "name": "细河区"}, "210921": {"lng": "121.69557778355", "lat": "42.157500408157", "name": "阜新蒙古族自治县"}, "210922": {"lng": "122.47417316389", "lat": "42.523754435526", "name": "彰武县"}, "211002": {"lng": "123.17516309965", "lat": "41.279285816853", "name": "白塔区"}, "211003": {"lng": "123.20121638487", "lat": "41.271122206557", "name": "文圣区"}, "211004": {"lng": "123.22051827536", "lat": "41.220763801748", "name": "宏伟区"}, "211005": {"lng": "123.42628014056", "lat": "41.145969646405", "name": "弓长岭区"}, "211011": {"lng": "123.17837427236", "lat": "41.274593139071", "name": "太子河区"}, "211021": {"lng": "123.21982126206", "lat": "41.077281158776", "name": "辽阳县"}, "211081": {"lng": "123.31257357315", "lat": "41.420098857086", "name": "灯塔市"}, "211102": {"lng": "122.03203843649", "lat": "41.193224510116", "name": "双台子区"}, "211103": {"lng": "121.96962911034", "lat": "41.155830887559", "name": "兴隆台区"}, "211104": {"lng": "122.08839097548", "lat": "40.905899458766", "name": "大洼区"}, "211122": {"lng": "121.95216562366", "lat": "41.193475065521", "name": "盘山县"}, "211202": {"lng": "123.85851586889", "lat": "42.248294823185", "name": "银州区"}, "211204": {"lng": "124.27578016446", "lat": "42.508557048192", "name": "清河区"}, "211221": {"lng": "123.91452868265", "lat": "42.222764650024", "name": "铁岭县"}, "211223": {"lng": "124.73850222789", "lat": "42.712739429005", "name": "西丰县"}, "211224": {"lng": "123.94640914451", "lat": "43.000462116167", "name": "昌图县"}, "211281": {"lng": "123.58434789559", "lat": "42.442929890534", "name": "调兵山市"}, "211282": {"lng": "124.28377598099", "lat": "42.471223289128", "name": "开原市"}, "211302": {"lng": "120.48407290204", "lat": "41.605740189556", "name": "双塔区"}, "211303": {"lng": "120.40133294592", "lat": "41.606226996662", "name": "龙城区"}, "211321": {"lng": "120.30506072918", "lat": "41.372795903547", "name": "朝阳县"}, "211322": {"lng": "119.63252714815", "lat": "41.842222586595", "name": "建平县"}, "211324": {"lng": "119.77553367022", "lat": "41.143623845035", "name": "喀喇沁左翼蒙古族自治县"}, "211381": {"lng": "120.81188458747", "lat": "41.865071031498", "name": "北票市"}, "211382": {"lng": "119.27154312683", "lat": "40.981801128352", "name": "凌源市"}, "211402": {"lng": "120.6883607801", "lat": "40.888537340117", "name": "连山区"}, "211403": {"lng": "120.90458597059", "lat": "40.750992710489", "name": "龙港区"}, "211404": {"lng": "120.66464506548", "lat": "41.137035783771", "name": "南票区"}, "211421": {"lng": "120.02630174192", "lat": "40.305129005823", "name": "绥中县"}, "211422": {"lng": "119.83489152944", "lat": "40.716827705586", "name": "建昌县"}, "211481": {"lng": "120.47552727234", "lat": "40.596284243832", "name": "兴城市"}, "220102": {"lng": "125.41964874071", "lat": "43.732190540843", "name": "南关区"}, "220103": {"lng": "125.34489933527", "lat": "43.998252407951", "name": "宽城区"}, "220104": {"lng": "125.27822648218", "lat": "43.689108619451", "name": "朝阳区"}, "220105": {"lng": "125.61148484631", "lat": "43.872222715497", "name": "二道区"}, "220106": {"lng": "125.19133076327", "lat": "43.912164564835", "name": "绿园区"}, "220112": {"lng": "125.71282235937", "lat": "43.531747024963", "name": "双阳区"}, "220113": {"lng": "125.96882675838", "lat": "44.194372106981", "name": "九台区"}, "220122": {"lng": "125.09432707273", "lat": "44.461506089801", "name": "农安县"}, "220182": {"lng": "126.60250076501", "lat": "44.879422926679", "name": "榆树市"}, "220183": {"lng": "125.76904438895", "lat": "44.510507146916", "name": "德惠市"}, "220202": {"lng": "126.3265130609", "lat": "44.023897560596", "name": "昌邑区"}, "220203": {"lng": "126.69508484724", "lat": "44.100874364702", "name": "龙潭区"}, "220204": {"lng": "126.38908947188", "lat": "43.882171941455", "name": "船营区"}, "220211": {"lng": "126.69820214702", "lat": "43.654515333155", "name": "丰满区"}, "220221": {"lng": "126.22756009767", "lat": "43.601481147552", "name": "永吉县"}, "220281": {"lng": "127.35174186542", "lat": "43.716756082246", "name": "蛟河市"}, "220282": {"lng": "127.04139243957", "lat": "43.056631099131", "name": "桦甸市"}, "220283": {"lng": "127.11677230895", "lat": "44.335465144158", "name": "舒兰市"}, "220284": {"lng": "126.17462779101", "lat": "43.05745611333", "name": "磐石市"}, "220302": {"lng": "124.35539155325", "lat": "43.214159722508", "name": "铁西区"}, "220303": {"lng": "124.45989915866", "lat": "43.101528833564", "name": "铁东区"}, "220322": {"lng": "124.38049140672", "lat": "43.414437629602", "name": "梨树县"}, "220323": {"lng": "125.27114939123", "lat": "43.346321828789", "name": "伊通满族自治县"}, "220381": {"lng": "124.6858822207", "lat": "43.791826067578", "name": "公主岭市"}, "220382": {"lng": "123.70852021747", "lat": "43.767694883217", "name": "双辽市"}, "220402": {"lng": "125.2109975481", "lat": "42.913196595909", "name": "龙山区"}, "220403": {"lng": "125.15014857862", "lat": "42.986364946378", "name": "西安区"}, "220421": {"lng": "125.45480890408", "lat": "42.683933895982", "name": "东丰县"}, "220422": {"lng": "125.18493119325", "lat": "42.94792512736", "name": "东辽县"}, "220502": {"lng": "125.9601237078", "lat": "41.677262396551", "name": "东昌区"}, "220503": {"lng": "126.15628012439", "lat": "41.772625959427", "name": "二道江区"}, "220521": {"lng": "125.85733217991", "lat": "41.729156130979", "name": "通化县"}, "220523": {"lng": "126.34272419975", "lat": "42.557948885604", "name": "辉南县"}, "220524": {"lng": "125.91727588294", "lat": "42.185665412078", "name": "柳河县"}, "220581": {"lng": "125.72351563218", "lat": "42.542649892656", "name": "梅河口市"}, "220582": {"lng": "125.99899197532", "lat": "41.251410585346", "name": "集安市"}, "220602": {"lng": "126.39664287376", "lat": "41.791642228255", "name": "浑江区"}, "220605": {"lng": "126.82530168684", "lat": "42.078958587922", "name": "江源区"}, "220621": {"lng": "127.62393805705", "lat": "42.277909113144", "name": "抚松县"}, "220622": {"lng": "126.90246851455", "lat": "42.449966505533", "name": "靖宇县"}, "220623": {"lng": "127.86435839919", "lat": "41.584709161363", "name": "长白朝鲜族自治县"}, "220681": {"lng": "127.19171033688", "lat": "41.816565968987", "name": "临江市"}, "220702": {"lng": "124.86757114896", "lat": "45.292709616884", "name": "宁江区"}, "220721": {"lng": "124.48165037618", "lat": "44.86912678932", "name": "前郭尔罗斯蒙古族自治县"}, "220722": {"lng": "123.8665042888", "lat": "44.305644527778", "name": "长岭县"}, "220723": {"lng": "123.96912337789", "lat": "44.92691448746", "name": "乾安县"}, "220781": {"lng": "125.60981401543", "lat": "45.171384133354", "name": "扶余市"}, "220802": {"lng": "122.78907446427", "lat": "45.623300921069", "name": "洮北区"}, "220821": {"lng": "123.45227210722", "lat": "45.956171923796", "name": "镇赉县"}, "220822": {"lng": "122.74529133311", "lat": "44.785716778696", "name": "通榆县"}, "220881": {"lng": "122.45367732552", "lat": "45.475604304499", "name": "洮南市"}, "220882": {"lng": "123.72371415195", "lat": "45.432438158186", "name": "大安市"}, "222401": {"lng": "129.47130153101", "lat": "43.05966660114", "name": "延吉市"}, "222402": {"lng": "129.83431076023", "lat": "43.03054892373", "name": "图们市"}, "222403": {"lng": "128.23949928011", "lat": "43.560201838077", "name": "敦化市"}, "222404": {"lng": "130.70236659184", "lat": "43.074719340737", "name": "珲春市"}, "222405": {"lng": "129.38381622469", "lat": "42.844249320769", "name": "龙井市"}, "222406": {"lng": "128.91121076889", "lat": "42.466442285556", "name": "和龙市"}, "222424": {"lng": "129.95399441696", "lat": "43.540143921506", "name": "汪清县"}, "222426": {"lng": "128.43765169208", "lat": "42.70103301919", "name": "安图县"}, "230102": {"lng": "126.36841846875", "lat": "45.686139243933", "name": "道里区"}, "230103": {"lng": "126.59025453924", "lat": "45.66612348458", "name": "南岗区"}, "230104": {"lng": "126.79557490271", "lat": "45.799105971955", "name": "道外区"}, "230108": {"lng": "126.65771685545", "lat": "45.773224633239", "name": "平房区"}, "230109": {"lng": "126.45227113075", "lat": "45.941458151669", "name": "松北区"}, "230110": {"lng": "126.79204413625", "lat": "45.710449322359", "name": "香坊区"}, "230111": {"lng": "126.78775713041", "lat": "46.079315096502", "name": "呼兰区"}, "230112": {"lng": "127.12462182332", "lat": "45.557335189202", "name": "阿城区"}, "230113": {"lng": "126.20893033512", "lat": "45.429694282772", "name": "双城区"}, "230123": {"lng": "129.72150310519", "lat": "46.275637068421", "name": "依兰县"}, "230124": {"lng": "128.94941872931", "lat": "45.819769362966", "name": "方正县"}, "230125": {"lng": "127.66161209688", "lat": "45.783825431221", "name": "宾县"}, "230126": {"lng": "127.32428735381", "lat": "46.340415542078", "name": "巴彦县"}, "230127": {"lng": "127.92983800734", "lat": "46.248171654041", "name": "木兰县"}, "230128": {"lng": "128.7622323166", "lat": "46.247857247283", "name": "通河县"}, "230129": {"lng": "128.4639428653", "lat": "45.489520215745", "name": "延寿县"}, "230183": {"lng": "128.31617023054", "lat": "45.083893011118", "name": "尚志市"}, "230184": {"lng": "127.49111263245", "lat": "44.772543560859", "name": "五常市"}, "230202": {"lng": "123.94483825767", "lat": "47.301073163863", "name": "龙沙区"}, "230203": {"lng": "124.02127875657", "lat": "47.404865706359", "name": "建华区"}, "230204": {"lng": "124.26293093367", "lat": "47.303488569291", "name": "铁锋区"}, "230205": {"lng": "123.97293464894", "lat": "47.104048383337", "name": "昂昂溪区"}, "230206": {"lng": "123.57199835236", "lat": "47.228951853753", "name": "富拉尔基区"}, "230207": {"lng": "122.93233528482", "lat": "47.585869259054", "name": "碾子山区"}, "230208": {"lng": "124.00548681519", "lat": "47.583080065198", "name": "梅里斯达斡尔族区"}, "230221": {"lng": "123.08910277315", "lat": "47.258895031048", "name": "龙江县"}, "230223": {"lng": "125.29463341876", "lat": "47.70687276451", "name": "依安县"}, "230224": {"lng": "123.55804791893", "lat": "46.603290111422", "name": "泰来县"}, "230225": {"lng": "123.84689963764", "lat": "48.011583079958", "name": "甘南县"}, "230227": {"lng": "124.57174679759", "lat": "47.66582009392", "name": "富裕县"}, "230229": {"lng": "125.70647087609", "lat": "48.16709075607", "name": "克山县"}, "230230": {"lng": "126.35213605416", "lat": "48.009015428979", "name": "克东县"}, "230231": {"lng": "126.02178604309", "lat": "47.59225565379", "name": "拜泉县"}, "230281": {"lng": "125.07655310394", "lat": "48.481453388811", "name": "讷河市"}, "230302": {"lng": "130.95993684965", "lat": "45.307610212685", "name": "鸡冠区"}, "230303": {"lng": "130.91626680525", "lat": "45.138570833129", "name": "恒山区"}, "230304": {"lng": "130.73483586173", "lat": "45.354342346984", "name": "滴道区"}, "230305": {"lng": "130.76523847274", "lat": "45.097064304174", "name": "梨树区"}, "230306": {"lng": "131.02770429868", "lat": "45.379689760283", "name": "城子河区"}, "230307": {"lng": "130.56688686698", "lat": "45.205825834254", "name": "麻山区"}, "230321": {"lng": "131.22565372007", "lat": "45.273228207889", "name": "鸡东县"}, "230381": {"lng": "133.12110607261", "lat": "45.997276203515", "name": "虎林市"}, "230382": {"lng": "132.17656238974", "lat": "45.469765426971", "name": "密山市"}, "230402": {"lng": "130.30123313444", "lat": "47.350919505165", "name": "向阳区"}, "230403": {"lng": "130.27719618578", "lat": "47.327770216306", "name": "工农区"}, "230404": {"lng": "130.28176460828", "lat": "47.298820938262", "name": "南山区"}, "230405": {"lng": "130.24437533634", "lat": "47.23371006572", "name": "兴安区"}, "230406": {"lng": "130.24750143952", "lat": "47.483737355287", "name": "东山区"}, "230407": {"lng": "130.32664592783", "lat": "47.393964799831", "name": "兴山区"}, "230421": {"lng": "130.76133324012", "lat": "47.74693489479", "name": "萝北县"}, "230422": {"lng": "131.85659492327", "lat": "47.483007019685", "name": "绥滨县"}, "230502": {"lng": "131.17851398363", "lat": "46.658524603822", "name": "尖山区"}, "230503": {"lng": "131.24602424779", "lat": "46.459521565337", "name": "岭东区"}, "230505": {"lng": "131.30870692831", "lat": "46.669775046181", "name": "四方台区"}, "230506": {"lng": "131.56483592752", "lat": "46.5292279819", "name": "宝山区"}, "230521": {"lng": "131.15055588277", "lat": "46.818437079003", "name": "集贤县"}, "230522": {"lng": "131.8549989164", "lat": "46.788592814562", "name": "友谊县"}, "230523": {"lng": "132.40927864827", "lat": "46.409383212717", "name": "宝清县"}, "230524": {"lng": "133.7292586825", "lat": "47.072628542857", "name": "饶河县"}, "230602": {"lng": "125.0424515298", "lat": "46.663311354817", "name": "萨尔图区"}, "230603": {"lng": "125.14176665986", "lat": "46.53556824178", "name": "龙凤区"}, "230604": {"lng": "124.83842676542", "lat": "46.729160383306", "name": "让胡路区"}, "230605": {"lng": "124.91428498269", "lat": "46.420778588396", "name": "红岗区"}, "230606": {"lng": "124.69907739268", "lat": "46.070051001663", "name": "大同区"}, "230621": {"lng": "125.3089692416", "lat": "45.837071583611", "name": "肇州县"}, "230622": {"lng": "124.76904364094", "lat": "45.647200471445", "name": "肇源县"}, "230623": {"lng": "124.8967829092", "lat": "47.159692937417", "name": "林甸县"}, "230624": {"lng": "124.24651264677", "lat": "46.561613536188", "name": "杜尔伯特蒙古族自治县"}, "230702": {"lng": "128.90057964259", "lat": "47.741959238189", "name": "伊春区"}, "230703": {"lng": "129.5388741261", "lat": "46.964156236684", "name": "南岔区"}, "230704": {"lng": "128.46596407584", "lat": "48.128001664241", "name": "友好区"}, "230705": {"lng": "129.22725517859", "lat": "47.500962038143", "name": "西林区"}, "230706": {"lng": "128.3654114401", "lat": "47.589933517239", "name": "翠峦区"}, "230707": {"lng": "129.78735692847", "lat": "48.216126405552", "name": "新青区"}, "230708": {"lng": "129.40940395803", "lat": "47.768892089215", "name": "美溪区"}, "230709": {"lng": "129.77190301946", "lat": "47.498543610736", "name": "金山屯区"}, "230710": {"lng": "129.061485473", "lat": "48.229327781105", "name": "五营区"}, "230711": {"lng": "128.79469008399", "lat": "47.549368172364", "name": "乌马河区"}, "230712": {"lng": "129.53875384299", "lat": "48.563262601637", "name": "汤旺河区"}, "230713": {"lng": "128.86147460713", "lat": "47.090162166708", "name": "带岭区"}, "230714": {"lng": "129.49893645126", "lat": "48.836655251992", "name": "乌伊岭区"}, "230715": {"lng": "129.25191896484", "lat": "48.298020306125", "name": "红星区"}, "230716": {"lng": "129.02239948161", "lat": "48.036509272978", "name": "上甘岭区"}, "230722": {"lng": "130.00824972425", "lat": "48.769519787363", "name": "嘉荫县"}, "230781": {"lng": "128.55251746527", "lat": "46.866328682376", "name": "铁力市"}, "230803": {"lng": "130.36295545541", "lat": "46.826706255713", "name": "向阳区"}, "230804": {"lng": "130.39791016311", "lat": "46.809721977545", "name": "前进区"}, "230805": {"lng": "130.51740321928", "lat": "46.894910414945", "name": "东风区"}, "230811": {"lng": "130.26396912133", "lat": "46.775887398703", "name": "郊区"}, "230822": {"lng": "130.63701542096", "lat": "46.306671717134", "name": "桦南县"}, "230826": {"lng": "130.9630176143", "lat": "46.989258424239", "name": "桦川县"}, "230828": {"lng": "130.07240618628", "lat": "46.988318509463", "name": "汤原县"}, "230881": {"lng": "133.27332836382", "lat": "47.833684686564", "name": "同江市"}, "230882": {"lng": "132.53900135629", "lat": "47.170672548244", "name": "富锦市"}, "230883": {"lng": "134.39306261929", "lat": "47.955162063941", "name": "抚远市"}, "230902": {"lng": "130.89318834856", "lat": "45.8134935903", "name": "新兴区"}, "230903": {"lng": "130.9925031193", "lat": "45.770092507257", "name": "桃山区"}, "230904": {"lng": "131.47522375459", "lat": "45.883167710316", "name": "茄子河区"}, "230921": {"lng": "130.81816940292", "lat": "45.930545419106", "name": "勃利县"}, "231002": {"lng": "129.86044675749", "lat": "44.408404499377", "name": "东安区"}, "231003": {"lng": "129.78391508059", "lat": "44.58797510378", "name": "阳明区"}, "231004": {"lng": "129.54456588932", "lat": "44.685920648737", "name": "爱民区"}, "231005": {"lng": "129.58492424063", "lat": "44.491714149262", "name": "西安区"}, "231025": {"lng": "130.02318050895", "lat": "45.396101732571", "name": "林口县"}, "231081": {"lng": "131.10245653286", "lat": "44.408005174587", "name": "绥芬河市"}, "231083": {"lng": "129.2214141346", "lat": "44.903617439366", "name": "海林市"}, "231084": {"lng": "129.21531714201", "lat": "44.058017259883", "name": "宁安市"}, "231085": {"lng": "130.39552588753", "lat": "44.576869855321", "name": "穆棱市"}, "231086": {"lng": "130.82976155466", "lat": "44.085228695883", "name": "东宁市"}, "231102": {"lng": "126.76426227527", "lat": "50.21824505447", "name": "爱辉区"}, "231121": {"lng": "125.77127508963", "lat": "49.621866015064", "name": "嫩江县"}, "231123": {"lng": "128.37087710653", "lat": "48.886739946849", "name": "逊克县"}, "231124": {"lng": "127.31667232079", "lat": "49.370655539474", "name": "孙吴县"}, "231181": {"lng": "127.11154600578", "lat": "48.115945723953", "name": "北安市"}, "231182": {"lng": "126.63450133401", "lat": "48.749166077372", "name": "五大连池市"}, "231202": {"lng": "126.95786274455", "lat": "46.747536778515", "name": "北林区"}, "231221": {"lng": "126.59302313008", "lat": "46.869481261175", "name": "望奎县"}, "231222": {"lng": "126.21354291791", "lat": "46.358350137762", "name": "兰西县"}, "231223": {"lng": "125.96052417701", "lat": "46.846560509098", "name": "青冈县"}, "231224": {"lng": "127.84448982607", "lat": "47.070365971064", "name": "庆安县"}, "231225": {"lng": "125.84126811337", "lat": "47.201247327838", "name": "明水县"}, "231226": {"lng": "127.71941343154", "lat": "47.584142706971", "name": "绥棱县"}, "231281": {"lng": "125.38455235789", "lat": "46.535467128182", "name": "安达市"}, "231282": {"lng": "125.84973124624", "lat": "46.009305917541", "name": "肇东市"}, "231283": {"lng": "126.89712924928", "lat": "47.447269604837", "name": "海伦市"}, "232721": {"lng": "124.91200234302", "lat": "51.813130087054", "name": "呼玛县"}, "232722": {"lng": "124.64020335752", "lat": "52.716506252523", "name": "塔河县"}, "232723": {"lng": "122.71572081474", "lat": "52.945658619469", "name": "漠河县"}, "310101": {"lng": "121.49607206403", "lat": "31.227203440769", "name": "黄浦区"}, "310104": {"lng": "121.44623500473", "lat": "31.169152089592", "name": "徐汇区"}, "310105": {"lng": "121.38761610866", "lat": "31.213301496814", "name": "长宁区"}, "310106": {"lng": "121.454755557", "lat": "31.235380803488", "name": "静安区"}, "310107": {"lng": "121.39844294375", "lat": "31.263742929076", "name": "普陀区"}, "310109": {"lng": "121.49191854079", "lat": "31.282497228987", "name": "虹口区"}, "310110": {"lng": "121.53571659963", "lat": "31.304510479542", "name": "杨浦区"}, "310112": {"lng": "121.42502428093", "lat": "31.093537540382", "name": "闵行区"}, "310113": {"lng": "121.40904121845", "lat": "31.398622694467", "name": "宝山区"}, "310114": {"lng": "121.25101353756", "lat": "31.364338055434", "name": "嘉定区"}, "310115": {"lng": "121.63848131409", "lat": "31.230895349134", "name": "浦东新区"}, "310116": {"lng": "121.24840817975", "lat": "30.835080777082", "name": "金山区"}, "310117": {"lng": "121.22679050142", "lat": "31.021244628099", "name": "松江区"}, "310118": {"lng": "121.09142524282", "lat": "31.130862397997", "name": "青浦区"}, "310120": {"lng": "121.56064167963", "lat": "30.915122452606", "name": "奉贤区"}, "310151": {"lng": "121.56909950183", "lat": "31.52860136251", "name": "崇明区"}, "320102": {"lng": "118.84893734485", "lat": "32.07176566029", "name": "玄武区"}, "320104": {"lng": "118.81722069709", "lat": "32.007969136143", "name": "秦淮区"}, "320105": {"lng": "118.71334176065", "lat": "32.012518207527", "name": "建邺区"}, "320106": {"lng": "118.76505691316", "lat": "32.068604458801", "name": "鼓楼区"}, "320111": {"lng": "118.56912478518", "lat": "32.05906230054", "name": "浦口区"}, "320113": {"lng": "118.96372475912", "lat": "32.16942425653", "name": "栖霞区"}, "320114": {"lng": "118.72197857905", "lat": "31.954552108797", "name": "雨花台区"}, "320115": {"lng": "118.83541822485", "lat": "31.863971430281", "name": "江宁区"}, "320116": {"lng": "118.84816604456", "lat": "32.400640243232", "name": "六合区"}, "320117": {"lng": "119.03955092741", "lat": "31.59098879063", "name": "溧水区"}, "320118": {"lng": "118.9648579166", "lat": "31.363673442531", "name": "高淳区"}, "320205": {"lng": "120.49100821099", "lat": "31.615587416408", "name": "锡山区"}, "320206": {"lng": "120.21529447552", "lat": "31.656376333546", "name": "惠山区"}, "320211": {"lng": "120.24850182101", "lat": "31.466578565031", "name": "滨湖区"}, "320213": {"lng": "120.30311934862", "lat": "31.57842412658", "name": "梁溪区"}, "320214": {"lng": "120.43882764569", "lat": "31.519399416228", "name": "新吴区"}, "320281": {"lng": "120.31067896716", "lat": "31.837425422051", "name": "江阴市"}, "320282": {"lng": "119.79026529658", "lat": "31.362244911879", "name": "宜兴市"}, "320302": {"lng": "117.29612858533", "lat": "34.301409800357", "name": "鼓楼区"}, "320303": {"lng": "117.27617608552", "lat": "34.22248667954", "name": "云龙区"}, "320305": {"lng": "117.49824588411", "lat": "34.410527773608", "name": "贾汪区"}, "320311": {"lng": "117.1755840183", "lat": "34.241946575704", "name": "泉山区"}, "320312": {"lng": "117.22940160979", "lat": "34.348981539618", "name": "铜山区"}, "320321": {"lng": "116.61573315373", "lat": "34.695773328628", "name": "丰县"}, "320322": {"lng": "116.91146840815", "lat": "34.700648164694", "name": "沛县"}, "320324": {"lng": "117.89036426969", "lat": "33.946570640866", "name": "睢宁县"}, "320381": {"lng": "118.34412147229", "lat": "34.284442736534", "name": "新沂市"}, "320382": {"lng": "117.90306004276", "lat": "34.402946394877", "name": "邳州市"}, "320402": {"lng": "120.00176576036", "lat": "31.777803256373", "name": "天宁区"}, "320404": {"lng": "119.91243874189", "lat": "31.79851137455", "name": "钟楼区"}, "320411": {"lng": "119.90315390841", "lat": "31.939946043961", "name": "新北区"}, "320412": {"lng": "119.94343167667", "lat": "31.672903473648", "name": "武进区"}, "320413": {"lng": "119.53415121469", "lat": "31.728356462124", "name": "金坛区"}, "320481": {"lng": "119.38283894831", "lat": "31.425241931012", "name": "溧阳市"}, "320505": {"lng": "120.47842441781", "lat": "31.351869327642", "name": "虎丘区"}, "320506": {"lng": "120.36577637267", "lat": "31.179869740166", "name": "吴中区"}, "320507": {"lng": "120.64685298258", "lat": "31.450775031111", "name": "相城区"}, "320508": {"lng": "120.61427934735", "lat": "31.326429631222", "name": "姑苏区"}, "320509": {"lng": "120.65734994979", "lat": "31.000093080624", "name": "吴江区"}, "320581": {"lng": "120.83148596516", "lat": "31.669446047798", "name": "常熟市"}, "320582": {"lng": "120.62727852834", "lat": "31.907812337769", "name": "张家港市"}, "320583": {"lng": "120.96580778411", "lat": "31.328936795497", "name": "昆山市"}, "320585": {"lng": "121.15897767248", "lat": "31.571904296415", "name": "太仓市"}, "320602": {"lng": "120.88759857738", "lat": "31.962660695271", "name": "崇川区"}, "320611": {"lng": "120.82387483505", "lat": "32.071256422788", "name": "港闸区"}, "320612": {"lng": "121.07249442751", "lat": "32.067098964254", "name": "通州区"}, "320621": {"lng": "120.47392692165", "lat": "32.553985066143", "name": "海安县"}, "320623": {"lng": "121.05924442185", "lat": "32.387662145338", "name": "如东县"}, "320681": {"lng": "121.67882229665", "lat": "31.871301838383", "name": "启东市"}, "320682": {"lng": "120.580143985", "lat": "32.273616272606", "name": "如皋市"}, "320684": {"lng": "121.31247014367", "lat": "31.956038868177", "name": "海门市"}, "320703": {"lng": "119.46701669742", "lat": "34.638921829102", "name": "连云区"}, "320706": {"lng": "119.16219625272", "lat": "34.514160144549", "name": "海州区"}, "320707": {"lng": "119.07859315245", "lat": "34.921103960847", "name": "赣榆区"}, "320722": {"lng": "118.79230964695", "lat": "34.556383225488", "name": "东海县"}, "320723": {"lng": "119.39277519918", "lat": "34.406832167104", "name": "灌云县"}, "320724": {"lng": "119.44639688138", "lat": "34.175194871764", "name": "灌南县"}, "320803": {"lng": "119.31329513264", "lat": "33.528348966942", "name": "淮安区"}, "320804": {"lng": "118.93566378046", "lat": "33.664059258402", "name": "淮阴区"}, "320812": {"lng": "119.04477992516", "lat": "33.494331166176", "name": "清江浦区"}, "320813": {"lng": "118.83000637571", "lat": "33.230193969134", "name": "洪泽区"}, "320826": {"lng": "119.32495655858", "lat": "33.884155184174", "name": "涟水县"}, "320830": {"lng": "118.53823246743", "lat": "32.971613125783", "name": "盱眙县"}, "320831": {"lng": "119.14563113528", "lat": "33.02583443776", "name": "金湖县"}, "320902": {"lng": "120.20635135183", "lat": "33.378948242447", "name": "亭湖区"}, "320903": {"lng": "119.96850073907", "lat": "33.265898266894", "name": "盐都区"}, "320904": {"lng": "120.58506449027", "lat": "33.265908526078", "name": "大丰区"}, "320921": {"lng": "119.79760156833", "lat": "34.232797426966", "name": "响水县"}, "320922": {"lng": "120.02660867811", "lat": "34.092317176392", "name": "滨海县"}, "320923": {"lng": "119.70499024879", "lat": "33.71197604815", "name": "阜宁县"}, "320924": {"lng": "120.27950474858", "lat": "33.745462250481", "name": "射阳县"}, "320925": {"lng": "119.83649673997", "lat": "33.488907986634", "name": "建湖县"}, "320981": {"lng": "120.56376947144", "lat": "32.791442548289", "name": "东台市"}, "321002": {"lng": "119.48667775758", "lat": "32.395670095608", "name": "广陵区"}, "321003": {"lng": "119.45826385876", "lat": "32.425830218252", "name": "邗江区"}, "321012": {"lng": "119.71731808779", "lat": "32.549160271061", "name": "江都区"}, "321023": {"lng": "119.45565078384", "lat": "33.225833658364", "name": "宝应县"}, "321081": {"lng": "119.20095502034", "lat": "32.392636465119", "name": "仪征市"}, "321084": {"lng": "119.50340701788", "lat": "32.835943695939", "name": "高邮市"}, "321102": {"lng": "119.5848217021", "lat": "32.201996095087", "name": "京口区"}, "321111": {"lng": "119.43092031591", "lat": "32.19664652864", "name": "润州区"}, "321112": {"lng": "119.4989723505", "lat": "32.114041364762", "name": "丹徒区"}, "321181": {"lng": "119.64430350829", "lat": "31.960263455083", "name": "丹阳市"}, "321182": {"lng": "119.84513751029", "lat": "32.189469410323", "name": "扬中市"}, "321183": {"lng": "119.20707980344", "lat": "31.932634957798", "name": "句容市"}, "321202": {"lng": "119.92117442715", "lat": "32.488257837661", "name": "海陵区"}, "321203": {"lng": "119.92574377278", "lat": "32.330075314459", "name": "高港区"}, "321204": {"lng": "120.06704535319", "lat": "32.532466165694", "name": "姜堰区"}, "321281": {"lng": "119.99641814069", "lat": "32.961954308808", "name": "兴化市"}, "321282": {"lng": "120.27689862725", "lat": "32.039442789049", "name": "靖江市"}, "321283": {"lng": "120.135346292", "lat": "32.213678940627", "name": "泰兴市"}, "321302": {"lng": "118.27463983758", "lat": "33.862829055956", "name": "宿城区"}, "321311": {"lng": "118.34369284322", "lat": "34.009529591744", "name": "宿豫区"}, "321322": {"lng": "118.85774971753", "lat": "34.154013659597", "name": "沭阳县"}, "321323": {"lng": "118.65694128685", "lat": "33.708800542074", "name": "泗阳县"}, "321324": {"lng": "118.3125512525", "lat": "33.425955266134", "name": "泗洪县"}, "330102": {"lng": "120.18012613889", "lat": "30.232357639233", "name": "上城区"}, "330103": {"lng": "120.18653502974", "lat": "30.310287874904", "name": "下城区"}, "330104": {"lng": "120.30382324371", "lat": "30.315832099954", "name": "江干区"}, "330105": {"lng": "120.15884493257", "lat": "30.344732010358", "name": "拱墅区"}, "330106": {"lng": "120.08899292561", "lat": "30.207036169515", "name": "西湖区"}, "330108": {"lng": "120.19237042946", "lat": "30.187587607727", "name": "滨江区"}, "330109": {"lng": "120.38908074858", "lat": "30.172893839066", "name": "萧山区"}, "330110": {"lng": "119.99808906005", "lat": "30.388119980754", "name": "余杭区"}, "330111": {"lng": "119.81096609176", "lat": "29.977808419757", "name": "富阳区"}, "330122": {"lng": "119.5604618667", "lat": "29.836582478934", "name": "桐庐县"}, "330127": {"lng": "118.89576489835", "lat": "29.614714225509", "name": "淳安县"}, "330182": {"lng": "119.37953322636", "lat": "29.487115319259", "name": "建德市"}, "330185": {"lng": "119.35029466684", "lat": "30.207683765784", "name": "临安市"}, "330203": {"lng": "121.5353945773", "lat": "29.876800511994", "name": "海曙区"}, "330204": {"lng": "121.5980008523", "lat": "29.87539247212", "name": "江东区"}, "330205": {"lng": "121.49329902932", "lat": "29.96639219001", "name": "江北区"}, "330206": {"lng": "121.88941885595", "lat": "29.868332319465", "name": "北仑区"}, "330211": {"lng": "121.61663045279", "lat": "29.995449382446", "name": "镇海区"}, "330212": {"lng": "121.53783481355", "lat": "29.78545893326", "name": "鄞州区"}, "330225": {"lng": "121.85866557564", "lat": "29.378771009449", "name": "象山县"}, "330226": {"lng": "121.46362436946", "lat": "29.314474088639", "name": "宁海县"}, "330281": {"lng": "121.15277918829", "lat": "29.996456719011", "name": "余姚市"}, "330282": {"lng": "121.33840825932", "lat": "30.189257122714", "name": "慈溪市"}, "330283": {"lng": "121.37718563878", "lat": "29.617073470394", "name": "奉化市"}, "330302": {"lng": "120.56579853224", "lat": "28.067865050513", "name": "鹿城区"}, "330303": {"lng": "120.81107773683", "lat": "27.913340713281", "name": "龙湾区"}, "330304": {"lng": "120.55840358596", "lat": "27.972177190591", "name": "瓯海区"}, "330305": {"lng": "121.15231818926", "lat": "27.884883705563", "name": "洞头区"}, "330324": {"lng": "120.66880872172", "lat": "28.336390468031", "name": "永嘉县"}, "330326": {"lng": "120.38938725481", "lat": "27.637700763436", "name": "平阳县"}, "330327": {"lng": "120.44554278341", "lat": "27.434436382653", "name": "苍南县"}, "330328": {"lng": "120.02842209847", "lat": "27.81271343668", "name": "文成县"}, "330329": {"lng": "119.88486761051", "lat": "27.536406837073", "name": "泰顺县"}, "330381": {"lng": "120.46834036335", "lat": "27.82923052833", "name": "瑞安市"}, "330382": {"lng": "121.01617490318", "lat": "28.26183898877", "name": "乐清市"}, "330402": {"lng": "120.84453542647", "lat": "30.716357921235", "name": "南湖区"}, "330411": {"lng": "120.69190746888", "lat": "30.777678969089", "name": "秀洲区"}, "330421": {"lng": "120.90887281597", "lat": "30.905748069187", "name": "嘉善县"}, "330424": {"lng": "120.88557558868", "lat": "30.526042585394", "name": "海盐县"}, "330481": {"lng": "120.61872710778", "lat": "30.442176799317", "name": "海宁市"}, "330482": {"lng": "121.10583903762", "lat": "30.716528587208", "name": "平湖市"}, "330483": {"lng": "120.49041120216", "lat": "30.612341030328", "name": "桐乡市"}, "330502": {"lng": "120.08891886954", "lat": "30.808545234564", "name": "吴兴区"}, "330503": {"lng": "120.30914675944", "lat": "30.766830865515", "name": "南浔区"}, "330521": {"lng": "120.04983138985", "lat": "30.567582881042", "name": "德清县"}, "330522": {"lng": "119.81941984715", "lat": "30.983352787535", "name": "长兴县"}, "330523": {"lng": "119.58315792627", "lat": "30.626370494334", "name": "安吉县"}, "330602": {"lng": "120.61832665179", "lat": "30.015792939952", "name": "越城区"}, "330603": {"lng": "120.54020524674", "lat": "29.999366392659", "name": "柯桥区"}, "330604": {"lng": "120.87986642651", "lat": "30.00645910703", "name": "上虞区"}, "330624": {"lng": "120.97570154218", "lat": "29.414313976622", "name": "新昌县"}, "330681": {"lng": "120.28143440994", "lat": "29.699399516981", "name": "诸暨市"}, "330683": {"lng": "120.76143097735", "lat": "29.591008031468", "name": "嵊州市"}, "330702": {"lng": "119.51757234284", "lat": "28.984539673649", "name": "婺城区"}, "330703": {"lng": "119.80922749595", "lat": "29.155526265081", "name": "金东区"}, "330723": {"lng": "119.72083317224", "lat": "28.774055561598", "name": "武义县"}, "330726": {"lng": "119.91048752626", "lat": "29.526266410155", "name": "浦江县"}, "330727": {"lng": "120.56744721648", "lat": "29.04420249188", "name": "磐安县"}, "330781": {"lng": "119.53333759742", "lat": "29.284102536325", "name": "兰溪市"}, "330782": {"lng": "120.06729564867", "lat": "29.306443911839", "name": "义乌市"}, "330783": {"lng": "120.38081772668", "lat": "29.237426947341", "name": "东阳市"}, "330784": {"lng": "120.10868352215", "lat": "28.940176566983", "name": "永康市"}, "330802": {"lng": "118.8130029548", "lat": "28.998535292058", "name": "柯城区"}, "330803": {"lng": "118.93904421103", "lat": "28.941983087299", "name": "衢江区"}, "330822": {"lng": "118.54767046745", "lat": "28.973666155532", "name": "常山县"}, "330824": {"lng": "118.33165006627", "lat": "29.18993794143", "name": "开化县"}, "330825": {"lng": "119.19866420604", "lat": "28.997079389242", "name": "龙游县"}, "330881": {"lng": "118.60708619901", "lat": "28.581969944141", "name": "江山市"}, "330902": {"lng": "122.07302446869", "lat": "30.06484716159", "name": "定海区"}, "330903": {"lng": "122.27876474766", "lat": "29.871101375771", "name": "普陀区"}, "330921": {"lng": "122.26035914727", "lat": "30.319415586505", "name": "岱山县"}, "330922": {"lng": "122.48168649477", "lat": "30.705003931261", "name": "嵊泗县"}, "331002": {"lng": "121.46737635254", "lat": "28.657015656331", "name": "椒江区"}, "331003": {"lng": "121.08831775253", "lat": "28.604655275769", "name": "黄岩区"}, "331004": {"lng": "121.45024245576", "lat": "28.548659438247", "name": "路桥区"},